[
	{
		"success": true,
		"data": [
			{
				"city": "北京市       ",
				"city_code": null,
				"station": "东城东四",
				"station_code": null,
				"lng": 116.417,
				"lat": 39.929,
				"guid": "f538ca45-0f41-4f56-9d7f-cf7e6572a65a"
			},
			{
				"city": "北京市       ",
				"city_code": null,
				"station": "东城天坛",
				"station_code": null,
				"lng": 116.407,
				"lat": 39.886,
				"guid": "efe4c8a7-18b4-44d8-97b0-b196925c661d"
			},
			{
				"city": "北京市       ",
				"city_code": null,
				"station": "西城官园",
				"station_code": null,
				"lng": 116.339,
				"lat": 39.929,
				"guid": "9a288a47-5d7e-4439-8f69-943b6496cef2"
			},
			{
				"city": "北京市       ",
				"city_code": null,
				"station": "西城万寿西宫",
				"station_code": null,
				"lng": 116.352,
				"lat": 39.878,
				"guid": "6c609d66-5052-4485-bcca-25f3e00df652"
			},
			{
				"city": "北京市       ",
				"city_code": null,
				"station": "朝阳奥体中心",
				"station_code": null,
				"lng": 116.397,
				"lat": 39.982,
				"guid": "0b27985f-d34d-4569-b562-8622a5375b5c"
			},
			{
				"city": "北京市       ",
				"city_code": null,
				"station": "朝阳农展馆",
				"station_code": null,
				"lng": 116.461,
				"lat": 39.937,
				"guid": "4d89a73f-a7db-4e1c-a69f-1f03bcd24599"
			},
			{
				"city": "北京市       ",
				"city_code": null,
				"station": "海淀万柳",
				"station_code": null,
				"lng": 116.287,
				"lat": 39.987,
				"guid": "b8577341-f2f8-4201-b9ef-bdd9942141b7"
			},
			{
				"city": "北京市       ",
				"city_code": null,
				"station": "海淀北部新区",
				"station_code": null,
				"lng": 116.174,
				"lat": 40.09,
				"guid": "403bb2b1-d07f-4482-b1c8-9b8a0fa0a722"
			},
			{
				"city": "北京市       ",
				"city_code": null,
				"station": "海淀北京植物园",
				"station_code": null,
				"lng": 116.207,
				"lat": 40.002,
				"guid": "c3638366-a62b-48c6-bdde-73916c82f5d3"
			},
			{
				"city": "北京市       ",
				"city_code": null,
				"station": "丰台花园",
				"station_code": null,
				"lng": 116.279,
				"lat": 39.863,
				"guid": "7fbbb022-a846-4354-992d-0786a1c02c25"
			},
			{
				"city": "北京市       ",
				"city_code": null,
				"station": "丰台云岗",
				"station_code": null,
				"lng": 116.146,
				"lat": 39.824,
				"guid": "312db346-3382-4fe9-b835-becc9f7cbfa3"
			},
			{
				"city": "北京市       ",
				"city_code": null,
				"station": "石景山古城",
				"station_code": null,
				"lng": 116.184,
				"lat": 39.914,
				"guid": "6dcc4369-7104-4f4d-8e33-b1742f288257"
			},
			{
				"city": "北京市       ",
				"city_code": null,
				"station": "房山良乡",
				"station_code": null,
				"lng": 116.136,
				"lat": 39.742,
				"guid": "eebd6c54-eeca-491b-9d9e-f7ca6c9f35b6"
			},
			{
				"city": "北京市       ",
				"city_code": null,
				"station": "大兴黄村镇",
				"station_code": null,
				"lng": 116.404,
				"lat": 39.718,
				"guid": "8799c28e-a742-4f86-84ba-535c12e1d385"
			},
			{
				"city": "北京市       ",
				"city_code": null,
				"station": "亦庄开发区",
				"station_code": null,
				"lng": 116.506,
				"lat": 39.795,
				"guid": "1e24509e-42d8-447c-93d8-b6312a1a548e"
			},
			{
				"city": "北京市       ",
				"city_code": null,
				"station": "通州新城",
				"station_code": null,
				"lng": 116.663,
				"lat": 39.886,
				"guid": "606d633b-21e9-444a-8254-08d4de02dce4"
			},
			{
				"city": "北京市       ",
				"city_code": null,
				"station": "顺义新城",
				"station_code": null,
				"lng": 116.655,
				"lat": 40.127,
				"guid": "acd84c69-7057-477b-8bec-cf0b2f052ab9"
			},
			{
				"city": "北京市       ",
				"city_code": null,
				"station": "昌平镇",
				"station_code": null,
				"lng": 116.23,
				"lat": 40.217,
				"guid": "403ea9a7-e46f-4091-85ac-da48c1062866"
			},
			{
				"city": "北京市       ",
				"city_code": null,
				"station": "门头沟龙泉镇",
				"station_code": null,
				"lng": 116.106,
				"lat": 39.937,
				"guid": "671edac5-dc70-4773-bbaa-1a841ffef64c"
			},
			{
				"city": "北京市       ",
				"city_code": null,
				"station": "平谷镇",
				"station_code": null,
				"lng": 117.1,
				"lat": 40.143,
				"guid": "e24fddbf-24b2-4bae-a201-52d393166e9d"
			},
			{
				"city": "北京市       ",
				"city_code": null,
				"station": "怀柔镇",
				"station_code": null,
				"lng": 116.628,
				"lat": 40.328,
				"guid": "68c649d3-9e59-4777-afe1-862159fd235c"
			},
			{
				"city": "北京市       ",
				"city_code": null,
				"station": "密云镇",
				"station_code": null,
				"lng": 116.832,
				"lat": 40.37,
				"guid": "02036d4f-ae34-4266-82f0-f57fc9c9469b"
			},
			{
				"city": "北京市       ",
				"city_code": null,
				"station": "延庆镇",
				"station_code": null,
				"lng": 115.972,
				"lat": 40.453,
				"guid": "17a89ea3-7bb8-48da-ae9b-fd2a0cdeeda4"
			},
			{
				"city": "北京市       ",
				"city_code": null,
				"station": "定陵对照点",
				"station_code": null,
				"lng": 116.22,
				"lat": 40.292,
				"guid": "d406f9c3-6833-4c16-8d15-97d91d67427d"
			},
			{
				"city": "北京市       ",
				"city_code": null,
				"station": "京西北区域点",
				"station_code": null,
				"lng": 115.988,
				"lat": 40.365,
				"guid": "d3b0087b-4854-4b1f-86e9-c680cdae538d"
			},
			{
				"city": "北京市       ",
				"city_code": null,
				"station": "京东北区域点",
				"station_code": null,
				"lng": 116.911,
				"lat": 40.499,
				"guid": "2a1df028-46b0-48bf-a2e8-91f0ac22ae2e"
			},
			{
				"city": "北京市       ",
				"city_code": null,
				"station": "京东区域点",
				"station_code": null,
				"lng": 117.12,
				"lat": 40.1,
				"guid": "006e98ef-4ba7-458c-a94e-8041cb595f57"
			},
			{
				"city": "北京市       ",
				"city_code": null,
				"station": "京东南区域点",
				"station_code": null,
				"lng": 116.783,
				"lat": 39.712,
				"guid": "4ef52922-749e-48a7-b14f-5f8cc99bd48a"
			},
			{
				"city": "北京市       ",
				"city_code": null,
				"station": "京南区域点",
				"station_code": null,
				"lng": 116.3,
				"lat": 39.52,
				"guid": "97f91393-609e-44e1-a8d7-764f940446fb"
			},
			{
				"city": "北京市       ",
				"city_code": null,
				"station": "京西南区域点",
				"station_code": null,
				"lng": 116,
				"lat": 39.58,
				"guid": "39a326a9-8ec0-44bb-bb4b-b0022335461e"
			},
			{
				"city": "北京市       ",
				"city_code": null,
				"station": "前门交通点",
				"station_code": null,
				"lng": 116.395,
				"lat": 39.899,
				"guid": "7ef9c808-6303-44a8-8ce1-da84387f03a9"
			},
			{
				"city": "北京市       ",
				"city_code": null,
				"station": "永定门交通点",
				"station_code": null,
				"lng": 116.394,
				"lat": 39.876,
				"guid": "bd79ea8c-2141-4f9b-906d-b766a52abafa"
			},
			{
				"city": "北京市       ",
				"city_code": null,
				"station": "西直门交通点",
				"station_code": null,
				"lng": 116.349,
				"lat": 39.954,
				"guid": "6968c4cb-fe32-4727-a36f-249dde49c12f"
			},
			{
				"city": "北京市       ",
				"city_code": null,
				"station": "南三环交通点",
				"station_code": null,
				"lng": 116.368,
				"lat": 39.856,
				"guid": "1a6555b2-7c27-466e-9a0b-4a28226e1df4"
			},
			{
				"city": "北京市       ",
				"city_code": null,
				"station": "东四环交通点",
				"station_code": null,
				"lng": 116.483,
				"lat": 39.939,
				"guid": "3dc4898b-ec67-46ce-b20b-48eed7ae8466"
			}
		],
		"name": "北京市"
	},
	{
		"success": true,
		"data": [
			{
				"city": "天津市       ",
				"city_code": null,
				"station": "宾水西道",
				"station_code": null,
				"lng": 117.15778,
				"lat": 39.09812,
				"guid": "6a9c908c-f1ed-4ff0-a2da-4621aabd1f0b"
			},
			{
				"city": "天津市       ",
				"city_code": null,
				"station": "中山北路",
				"station_code": null,
				"lng": 117.1933667,
				"lat": 39.17295,
				"guid": "bb0825dd-929c-4fb6-be0f-5fe42579af8b"
			},
			{
				"city": "天津市       ",
				"city_code": null,
				"station": "勤俭道",
				"station_code": null,
				"lng": 117.1446333,
				"lat": 39.16543333,
				"guid": "7f3915c5-8c42-447f-83e7-f1a66969f0c2"
			},
			{
				"city": "天津市       ",
				"city_code": null,
				"station": "大理道",
				"station_code": null,
				"lng": 117.19405,
				"lat": 39.1067166666667,
				"guid": "6c6b7c86-9990-45c9-8a51-4ecdf3a2033b"
			},
			{
				"city": "天津市       ",
				"city_code": null,
				"station": "大直沽八号路",
				"station_code": null,
				"lng": 117.2452,
				"lat": 39.11083,
				"guid": "4e2f36bd-025b-44be-8878-274f9bb4a237"
			},
			{
				"city": "天津市       ",
				"city_code": null,
				"station": "前进道",
				"station_code": null,
				"lng": 117.2016833,
				"lat": 39.0927,
				"guid": "60c53915-ef28-4858-b96b-aabfdc88bf1d"
			},
			{
				"city": "天津市       ",
				"city_code": null,
				"station": "淮河道",
				"station_code": null,
				"lng": 117.18495,
				"lat": 39.22605,
				"guid": "10cf4c23-64df-4f12-b988-40e36ec736f3"
			},
			{
				"city": "天津市       ",
				"city_code": null,
				"station": "跃进路",
				"station_code": null,
				"lng": 117.3145,
				"lat": 39.08714,
				"guid": "e4fa61e7-ff5f-40ce-b627-eb3933fe6bba"
			},
			{
				"city": "天津市       ",
				"city_code": null,
				"station": "第四大街",
				"station_code": null,
				"lng": 117.70715,
				"lat": 39.03431667,
				"guid": "7ffe96a0-7ef5-47f9-a67b-af2debacb036"
			},
			{
				"city": "天津市       ",
				"city_code": null,
				"station": "永明路",
				"station_code": null,
				"lng": 117.45735,
				"lat": 38.83945,
				"guid": "2c161bad-858d-4d48-8857-ee78c84ed14e"
			},
			{
				"city": "天津市       ",
				"city_code": null,
				"station": "津同路",
				"station_code": null,
				"lng": 116.991,
				"lat": 39.141,
				"guid": "3d59385f-38bc-4d16-891e-abd84c59442a"
			},
			{
				"city": "天津市       ",
				"city_code": null,
				"station": "津沽路",
				"station_code": null,
				"lng": 117.3747333,
				"lat": 38.98458333,
				"guid": "cdec21ea-c7fa-4d6f-9696-afd821b637f4"
			},
			{
				"city": "天津市       ",
				"city_code": null,
				"station": "塘沽营口道",
				"station_code": null,
				"lng": 117.6503,
				"lat": 39.02096667,
				"guid": "2d33be53-2c89-4e12-abfb-4cf76ccfee88"
			},
			{
				"city": "天津市       ",
				"city_code": null,
				"station": "河西一经路",
				"station_code": null,
				"lng": 117.7917667,
				"lat": 39.24735,
				"guid": "d04832a5-d978-4004-a758-ebfbbe3285ea"
			},
			{
				"city": "天津市       ",
				"city_code": null,
				"station": "渔阳路",
				"station_code": null,
				"lng": 117.293766,
				"lat": 39.6939166,
				"guid": "d4133669-6cd0-422e-b574-1f04d3295e60"
			},
			{
				"city": "天津市       ",
				"city_code": null,
				"station": "泉州南路",
				"station_code": null,
				"lng": 117.0439833,
				"lat": 39.37261667,
				"guid": "840fa3f2-dfe6-459f-bf0d-6668179cc2e5"
			},
			{
				"city": "天津市       ",
				"city_code": null,
				"station": "东环路",
				"station_code": null,
				"lng": 117.4444167,
				"lat": 40.04175,
				"guid": "d3070934-5ba4-454c-892d-02a5a79fd73f"
			},
			{
				"city": "天津市       ",
				"city_code": null,
				"station": "团泊洼",
				"station_code": null,
				"lng": 117.1566333,
				"lat": 38.91943333,
				"guid": "2f09b48f-a2ff-4538-8442-b8ae08cc8552"
			},
			{
				"city": "天津市       ",
				"city_code": null,
				"station": "滨水东路",
				"station_code": null,
				"lng": 117.8165667,
				"lat": 39.32815,
				"guid": "60c3c15c-5083-4478-9df9-84b9d1564eaf"
			},
			{
				"city": "天津市       ",
				"city_code": null,
				"station": "广海道",
				"station_code": null,
				"lng": 116.9148,
				"lat": 38.94316667,
				"guid": "4f0c0fcd-5273-43bc-8fd8-56f8b87c1df4"
			},
			{
				"city": "天津市       ",
				"city_code": null,
				"station": "海泰发展二路",
				"station_code": null,
				"lng": 117.0901667,
				"lat": 39.07846667,
				"guid": "8da5992c-42b1-4d3b-981d-469b3255da2d"
			},
			{
				"city": "天津市       ",
				"city_code": null,
				"station": "航天路",
				"station_code": null,
				"lng": 117.3747667,
				"lat": 39.15106667,
				"guid": "1fb0ed67-5d1e-43a4-8bc5-5cfdb5534a12"
			},
			{
				"city": "天津市       ",
				"city_code": null,
				"station": "汉北路",
				"station_code": null,
				"lng": 117.7641667,
				"lat": 39.15875,
				"guid": "f2734840-fed5-4ce9-8d8e-f20b066ee131"
			},
			{
				"city": "天津市       ",
				"city_code": null,
				"station": "广安道",
				"station_code": null,
				"lng": 116.7794167,
				"lat": 38.84516667,
				"guid": "9e274649-66fa-4f33-bd43-b3cfbe795a13"
			},
			{
				"city": "天津市       ",
				"city_code": null,
				"station": "宝白公路",
				"station_code": null,
				"lng": 117.3431167,
				"lat": 39.51626667,
				"guid": "6f11740d-d8be-4604-94ac-e0d03a53ec93"
			},
			{
				"city": "天津市       ",
				"city_code": null,
				"station": "雍阳西道",
				"station_code": null,
				"lng": 117.04264,
				"lat": 39.384055,
				"guid": "fae8384d-119d-4a0f-9053-67cf0a1d7aac"
			},
			{
				"city": "天津市       ",
				"city_code": null,
				"station": "辛老路",
				"station_code": null,
				"lng": 117.030055555556,
				"lat": 39.0607777777778,
				"guid": "7616900a-0b17-4c30-8fc7-9a29e55d66f5"
			},
			{
				"city": "天津市       ",
				"city_code": null,
				"station": "天和路",
				"station_code": null,
				"lng": 117.120330555556,
				"lat": 39.3408972222222,
				"guid": "2ed50e2a-df2d-4776-994c-58254367c289"
			}
		],
		"name": "天津市"
	},
	{
		"success": true,
		"data": [
			{
				"city": "石家庄市      ",
				"city_code": null,
				"station": "市区世纪公园",
				"station_code": null,
				"lng": 114.542,
				"lat": 38.031,
				"guid": "842921e4-8ff1-481f-adb6-41b572f200ee"
			},
			{
				"city": "石家庄市      ",
				"city_code": null,
				"station": "市区西南高教",
				"station_code": null,
				"lng": 114.467,
				"lat": 38.012,
				"guid": "c6870544-d9e7-46b4-8b0b-4575d5cf3a66"
			},
			{
				"city": "石家庄市      ",
				"city_code": null,
				"station": "市区22中南校区",
				"station_code": null,
				"lng": 114.562,
				"lat": 38.042,
				"guid": "07b2fc68-3850-47d5-b1d0-01daade02b98"
			},
			{
				"city": "石家庄市      ",
				"city_code": null,
				"station": "市区职工医院",
				"station_code": null,
				"lng": 114.455,
				"lat": 38.051,
				"guid": "35ce6730-6755-40af-8866-44218baee654"
			},
			{
				"city": "石家庄市      ",
				"city_code": null,
				"station": "市区人民会堂",
				"station_code": null,
				"lng": 114.521,
				"lat": 38.052,
				"guid": "92df3db0-4830-4740-8608-a6f85f858298"
			},
			{
				"city": "石家庄市      ",
				"city_code": null,
				"station": "市区西北水源",
				"station_code": null,
				"lng": 114.502,
				"lat": 38.14,
				"guid": "4651ea2d-66f0-4c20-a910-4d88f61fa2a9"
			},
			{
				"city": "石家庄市      ",
				"city_code": null,
				"station": "市区高新区",
				"station_code": null,
				"lng": 114.605,
				"lat": 38.04,
				"guid": "1c41eaaf-4168-4e7f-b311-efa3c2cfdbf5"
			},
			{
				"city": "石家庄市      ",
				"city_code": null,
				"station": "市区封龙山(*)",
				"station_code": null,
				"lng": 114.354,
				"lat": 37.91,
				"guid": "ebf265a0-d272-4d98-bc10-7c0cc330b585"
			},
			{
				"city": "石家庄市      ",
				"city_code": null,
				"station": "鹿泉一中(*)",
				"station_code": null,
				"lng": 114.347,
				"lat": 38.085,
				"guid": "f6462c8a-bce4-4135-95ab-e2646bf7424a"
			},
			{
				"city": "石家庄市      ",
				"city_code": null,
				"station": "正定联通公司(*)",
				"station_code": null,
				"lng": 114.593,
				"lat": 38.159,
				"guid": "d45cda07-7636-43e3-a977-4812ebbbd92b"
			},
			{
				"city": "石家庄市      ",
				"city_code": null,
				"station": "栾城通讯公司(*)",
				"station_code": null,
				"lng": 114.633,
				"lat": 37.906,
				"guid": "d087f4ce-d6e8-4c2e-96d4-13a418ac9171"
			},
			{
				"city": "石家庄市      ",
				"city_code": null,
				"station": "藁城实验学校(*)",
				"station_code": null,
				"lng": 114.862,
				"lat": 38.039,
				"guid": "e670c5ce-640d-4e90-96e1-9e051ec36d2f"
			},
			{
				"city": "石家庄市      ",
				"city_code": null,
				"station": "晋州博纳德(*)",
				"station_code": null,
				"lng": 115.079,
				"lat": 38.04,
				"guid": "255a49ef-8d8a-4288-bd0b-15a2ffebd8d6"
			},
			{
				"city": "石家庄市      ",
				"city_code": null,
				"station": "新乐市委东楼(*)",
				"station_code": null,
				"lng": 114.69,
				"lat": 38.349,
				"guid": "7cc39d62-2f0b-4d92-b5ec-a2057f9d5d57"
			},
			{
				"city": "石家庄市      ",
				"city_code": null,
				"station": "无极环保局(*)",
				"station_code": null,
				"lng": 114.991,
				"lat": 38.178,
				"guid": "3c065b1f-b963-4eef-81ad-c673fe4e9db1"
			},
			{
				"city": "石家庄市      ",
				"city_code": null,
				"station": "深泽供电局(*)",
				"station_code": null,
				"lng": 115.213,
				"lat": 38.197,
				"guid": "50de79e6-d7df-4ee9-8c2a-3b17a4a1d565"
			},
			{
				"city": "石家庄市      ",
				"city_code": null,
				"station": "赵县环保局(*)",
				"station_code": null,
				"lng": 114.77,
				"lat": 37.771,
				"guid": "d4a18fdb-d017-4e82-a08d-8bfc66882131"
			},
			{
				"city": "石家庄市      ",
				"city_code": null,
				"station": "高邑县政府(*)",
				"station_code": null,
				"lng": 114.607,
				"lat": 37.623,
				"guid": "db428d0f-52df-436c-a78a-7ecc9c3db593"
			},
			{
				"city": "石家庄市      ",
				"city_code": null,
				"station": "元氏住建局(*)",
				"station_code": null,
				"lng": 114.517,
				"lat": 37.766,
				"guid": "d9afc650-cace-4b47-8249-80399a0edd9f"
			},
			{
				"city": "石家庄市      ",
				"city_code": null,
				"station": "赞皇县政府(*)",
				"station_code": null,
				"lng": 114.392,
				"lat": 37.672,
				"guid": "e975f724-5091-4a8e-b7ad-ae46b25ae533"
			},
			{
				"city": "石家庄市      ",
				"city_code": null,
				"station": "井陉县气象局(*)",
				"station_code": null,
				"lng": 114.152,
				"lat": 38.038,
				"guid": "eae6fb10-98db-4edc-9986-c11fe3c8a701"
			},
			{
				"city": "石家庄市      ",
				"city_code": null,
				"station": "井陉矿区区委大楼(*)",
				"station_code": null,
				"lng": 114.069,
				"lat": 38.071,
				"guid": "004da31c-8a10-4629-9e22-2a66f966bde0"
			},
			{
				"city": "石家庄市      ",
				"city_code": null,
				"station": "平山冶河(*)",
				"station_code": null,
				"lng": 114.204,
				"lat": 38.266,
				"guid": "3b464811-8151-4c8c-ae73-2976ae4dc11b"
			},
			{
				"city": "石家庄市      ",
				"city_code": null,
				"station": "灵寿供水(*)",
				"station_code": null,
				"lng": 114.367,
				"lat": 38.315,
				"guid": "4442bfc1-fe4c-4451-83fd-61555cf9f5d9"
			},
			{
				"city": "石家庄市      ",
				"city_code": null,
				"station": "行唐县委办公楼(*)",
				"station_code": null,
				"lng": 114.56,
				"lat": 38.444,
				"guid": "dda12075-7aab-4e7c-aac5-7f25488a9930"
			},
			{
				"city": "辛集市       ",
				"city_code": null,
				"station": "辛集市政府",
				"station_code": null,
				"lng": 115.224,
				"lat": 37.949,
				"guid": "f02f1b56-47ba-49ff-bfa3-bfc7b71891a4"
			},
			{
				"city": "承德市       ",
				"city_code": null,
				"station": "铁路",
				"station_code": null,
				"lng": 117.966,
				"lat": 40.916,
				"guid": "cb6fd459-9fa9-4bc0-8f80-c74a958022d7"
			},
			{
				"city": "承德市       ",
				"city_code": null,
				"station": "文化中心",
				"station_code": null,
				"lng": 117.818,
				"lat": 40.973,
				"guid": "b0b52065-3681-4ce8-a3f8-c1222a84b6f4"
			},
			{
				"city": "承德市       ",
				"city_code": null,
				"station": "中国银行",
				"station_code": null,
				"lng": 117.952,
				"lat": 40.984,
				"guid": "ecc359d4-4940-4897-9017-19bdd0ae0b24"
			},
			{
				"city": "承德市       ",
				"city_code": null,
				"station": "离宫(*)",
				"station_code": null,
				"lng": 117.938,
				"lat": 41.011,
				"guid": "211a2ffd-6915-4073-8c6e-8eff2345460e"
			},
			{
				"city": "承德市       ",
				"city_code": null,
				"station": "开发区",
				"station_code": null,
				"lng": 117.963,
				"lat": 40.936,
				"guid": "83b20615-e694-4b1b-a7f5-539c1aa91714"
			},
			{
				"city": "承德市       ",
				"city_code": null,
				"station": "兴隆矿业招待所(*)",
				"station_code": null,
				"lng": 117.669,
				"lat": 40.552,
				"guid": "42012905-5e19-4c74-b2e7-fbbd31f0679e"
			},
			{
				"city": "承德市       ",
				"city_code": null,
				"station": "承德县环保局(*)",
				"station_code": null,
				"lng": 118.17,
				"lat": 40.775,
				"guid": "ba022bdd-446a-4861-b0c3-85397eba471e"
			},
			{
				"city": "承德市       ",
				"city_code": null,
				"station": "兴隆县政府(*)",
				"station_code": null,
				"lng": 117.507,
				"lat": 40.423,
				"guid": "d6e46e22-0c07-4bf0-98e7-198e912b47bd"
			},
			{
				"city": "承德市       ",
				"city_code": null,
				"station": "平泉县特教中心(*)",
				"station_code": null,
				"lng": 118.699,
				"lat": 41.017,
				"guid": "19677060-ee5e-47b1-a0a8-ac1ba3224d9d"
			},
			{
				"city": "承德市       ",
				"city_code": null,
				"station": "滦平环保局(*)",
				"station_code": null,
				"lng": 117.344,
				"lat": 40.949,
				"guid": "c2ad15b7-d8bd-44f3-838b-a9618042ac0e"
			},
			{
				"city": "承德市       ",
				"city_code": null,
				"station": "隆化县环保局(*)",
				"station_code": null,
				"lng": 117.733,
				"lat": 41.31,
				"guid": "10559234-838f-48c1-8299-3a655f9633b5"
			},
			{
				"city": "承德市       ",
				"city_code": null,
				"station": "丰宁县政府(*)",
				"station_code": null,
				"lng": 116.652,
				"lat": 41.215,
				"guid": "4cb19fb3-5504-4e08-a3a6-9bd674a1a9f2"
			},
			{
				"city": "承德市       ",
				"city_code": null,
				"station": "宽城县政府(*)",
				"station_code": null,
				"lng": 118.48,
				"lat": 40.612,
				"guid": "05c5e53c-0cae-46db-a35a-cf26e4e21506"
			},
			{
				"city": "承德市       ",
				"city_code": null,
				"station": "围场县政府(*)",
				"station_code": null,
				"lng": 117.771,
				"lat": 41.956,
				"guid": "27a9fd11-b4f3-47f6-8b14-5e818bfba624"
			},
			{
				"city": "张家口市      ",
				"city_code": null,
				"station": "北泵房(*)",
				"station_code": null,
				"lng": 114.904,
				"lat": 40.873,
				"guid": "d25ca6dc-f9a7-426b-8e69-9ff5ec350ec9"
			},
			{
				"city": "张家口市      ",
				"city_code": null,
				"station": "世纪豪园",
				"station_code": null,
				"lng": 114.903,
				"lat": 40.769,
				"guid": "65084474-ac1c-4709-ba39-17bea0fef2e2"
			},
			{
				"city": "张家口市      ",
				"city_code": null,
				"station": "人民公园",
				"station_code": null,
				"lng": 114.898,
				"lat": 40.837,
				"guid": "04a82ee9-4aa7-449b-9033-3177684a7c4b"
			},
			{
				"city": "张家口市      ",
				"city_code": null,
				"station": "五金库",
				"station_code": null,
				"lng": 114.881,
				"lat": 40.811,
				"guid": "2a7b55e5-3613-4f3b-a603-d0cfb740290e"
			},
			{
				"city": "张家口市      ",
				"city_code": null,
				"station": "探机厂",
				"station_code": null,
				"lng": 114.892,
				"lat": 40.795,
				"guid": "2bd18167-becc-48d3-9d20-a2ecf6130042"
			},
			{
				"city": "张家口市      ",
				"city_code": null,
				"station": "宣化区军营凤凰城(*)",
				"station_code": null,
				"lng": 115.106,
				"lat": 40.615,
				"guid": "741b46e7-ea5a-4566-bbbc-d92a1d77b9d9"
			},
			{
				"city": "张家口市      ",
				"city_code": null,
				"station": "下花园环保局(*)",
				"station_code": null,
				"lng": 115.296,
				"lat": 40.508,
				"guid": "6449edaf-967d-438a-960a-dbf0cbffc6b0"
			},
			{
				"city": "张家口市      ",
				"city_code": null,
				"station": "宣化县沙岭子医院(*)",
				"station_code": null,
				"lng": 114.917,
				"lat": 40.677,
				"guid": "b951ccc6-b16d-4a7a-b36b-6e7a74d11c8a"
			},
			{
				"city": "张家口市      ",
				"city_code": null,
				"station": "张北县环保局(*)",
				"station_code": null,
				"lng": 114.726,
				"lat": 41.165,
				"guid": "36920e03-e702-4619-8889-91eac4ffc68d"
			},
			{
				"city": "张家口市      ",
				"city_code": null,
				"station": "康保县环保局(*)",
				"station_code": null,
				"lng": 114.585,
				"lat": 41.836,
				"guid": "76780660-8af7-4ba1-af85-2961082179dc"
			},
			{
				"city": "张家口市      ",
				"city_code": null,
				"station": "沽源县福利院(*)",
				"station_code": null,
				"lng": 115.681,
				"lat": 41.668,
				"guid": "ec1a4eb3-987b-4c4d-bb85-add345ebc659"
			},
			{
				"city": "张家口市      ",
				"city_code": null,
				"station": "尚义县环境保护局(*)",
				"station_code": null,
				"lng": 113.978,
				"lat": 41.085,
				"guid": "68d4820a-42c2-4319-990e-70bf662d1ae4"
			},
			{
				"city": "张家口市      ",
				"city_code": null,
				"station": "蔚县第二中学(*)",
				"station_code": null,
				"lng": 114.596,
				"lat": 39.846,
				"guid": "bb31f474-596a-4afc-b692-9609388ed1b0"
			},
			{
				"city": "张家口市      ",
				"city_code": null,
				"station": "阳原县职教中心(*)",
				"station_code": null,
				"lng": 114.128,
				"lat": 40.105,
				"guid": "cb917196-1779-49c2-9a76-524a8dc84977"
			},
			{
				"city": "张家口市      ",
				"city_code": null,
				"station": "怀安环保局(*)",
				"station_code": null,
				"lng": 114.392,
				"lat": 40.68,
				"guid": "17b986c0-f9e1-4f12-866e-e4d48e9f570a"
			},
			{
				"city": "张家口市      ",
				"city_code": null,
				"station": "万全县环保局(*)",
				"station_code": null,
				"lng": 114.744,
				"lat": 40.769,
				"guid": "1bfa63b7-5105-46f8-8d30-cbee4741fdbb"
			},
			{
				"city": "张家口市      ",
				"city_code": null,
				"station": "怀来府前小学(*)",
				"station_code": null,
				"lng": 115.524,
				"lat": 40.421,
				"guid": "ad339bf9-77e6-4f5b-9716-a72f16ba86c3"
			},
			{
				"city": "张家口市      ",
				"city_code": null,
				"station": "涿鹿县环保局(*)",
				"station_code": null,
				"lng": 115.215,
				"lat": 40.372,
				"guid": "896abbaf-6211-4a17-a19a-27a6f91fcfe0"
			},
			{
				"city": "张家口市      ",
				"city_code": null,
				"station": "赤城北山(*)",
				"station_code": null,
				"lng": 115.838,
				"lat": 40.919,
				"guid": "38920644-6ff8-469f-b819-e7ddc3d4748c"
			},
			{
				"city": "张家口市      ",
				"city_code": null,
				"station": "崇礼梦特芳丹酒店(*)",
				"station_code": null,
				"lng": 115.289,
				"lat": 40.98,
				"guid": "ab7e5b29-4de2-4e4c-ab75-77fbf9985ba1"
			},
			{
				"city": "秦皇岛市      ",
				"city_code": null,
				"station": "市监测站",
				"station_code": null,
				"lng": 119.602,
				"lat": 39.957,
				"guid": "51bd461a-f30f-4e70-a98d-54290744d420"
			},
			{
				"city": "秦皇岛市      ",
				"city_code": null,
				"station": "北戴河",
				"station_code": null,
				"lng": 119.526,
				"lat": 39.828,
				"guid": "af5e5819-dc5b-40fc-8091-c752ea6b0bc3"
			},
			{
				"city": "秦皇岛市      ",
				"city_code": null,
				"station": "第一关",
				"station_code": null,
				"lng": 119.762,
				"lat": 40.018,
				"guid": "ac6c0de9-8fa2-49c0-a0d3-b4e29ab5ea5b"
			},
			{
				"city": "秦皇岛市      ",
				"city_code": null,
				"station": "建设大厦",
				"station_code": null,
				"lng": 119.537,
				"lat": 39.942,
				"guid": "390b838e-0df0-41c7-88eb-679afca81954"
			},
			{
				"city": "秦皇岛市      ",
				"city_code": null,
				"station": "市政府",
				"station_code": null,
				"lng": 119.607,
				"lat": 39.936,
				"guid": "f8f7b369-bd44-4489-86c8-060d866e221a"
			},
			{
				"city": "秦皇岛市      ",
				"city_code": null,
				"station": "青龙环保局(*)",
				"station_code": null,
				"lng": 118.952,
				"lat": 40.418,
				"guid": "02a88ea6-ea1f-4a3f-b377-f289897aa90d"
			},
			{
				"city": "秦皇岛市      ",
				"city_code": null,
				"station": "昌黎环保局(*)",
				"station_code": null,
				"lng": 119.167,
				"lat": 39.713,
				"guid": "d46e276c-ca6c-4fd5-a965-60509d493171"
			},
			{
				"city": "秦皇岛市      ",
				"city_code": null,
				"station": "抚宁党校(*)",
				"station_code": null,
				"lng": 119.251,
				"lat": 39.882,
				"guid": "21cd66b3-db2d-42bb-ba9c-d87fe98fcbcc"
			},
			{
				"city": "秦皇岛市      ",
				"city_code": null,
				"station": "卢龙县气象局(*)",
				"station_code": null,
				"lng": 118.899,
				"lat": 39.9,
				"guid": "e92e3f4b-f2e1-4233-bb20-fef9919525fd"
			},
			{
				"city": "唐山市       ",
				"city_code": null,
				"station": "陶瓷公司",
				"station_code": null,
				"lng": 118.219,
				"lat": 39.668,
				"guid": "c2fe034e-be22-41e2-b24a-f428339af5da"
			},
			{
				"city": "唐山市       ",
				"city_code": null,
				"station": "雷达站子站",
				"station_code": null,
				"lng": 118.144,
				"lat": 39.643,
				"guid": "eabfa026-0c83-4278-bcc2-aa706e877ff8"
			},
			{
				"city": "唐山市       ",
				"city_code": null,
				"station": "供销社",
				"station_code": null,
				"lng": 118.166,
				"lat": 39.631,
				"guid": "30ca038e-5825-400e-8642-56f08e2e937b"
			},
			{
				"city": "唐山市       ",
				"city_code": null,
				"station": "十二中",
				"station_code": null,
				"lng": 118.184,
				"lat": 39.658,
				"guid": "6c1cfb2f-9bc7-4032-ac49-59f6ea0aa061"
			},
			{
				"city": "唐山市       ",
				"city_code": null,
				"station": "物资局",
				"station_code": null,
				"lng": 118.185,
				"lat": 39.641,
				"guid": "9e84a4ac-3c49-446e-bdba-6595dfe5847c"
			},
			{
				"city": "唐山市       ",
				"city_code": null,
				"station": "小山",
				"station_code": null,
				"lng": 118.2,
				"lat": 39.63,
				"guid": "90d25d03-fd88-4b29-ba56-bbeb851bb462"
			},
			{
				"city": "唐山市       ",
				"city_code": null,
				"station": "古冶区政府(*)",
				"station_code": null,
				"lng": 118.454,
				"lat": 39.74,
				"guid": "a36dede9-28d5-4a10-8afa-b77ef5025032"
			},
			{
				"city": "唐山市       ",
				"city_code": null,
				"station": "开平监测站(*)",
				"station_code": null,
				"lng": 118.269,
				"lat": 39.674,
				"guid": "660c7655-0a06-43a1-b9fb-8162d7863457"
			},
			{
				"city": "唐山市       ",
				"city_code": null,
				"station": "丰南区政府(*)",
				"station_code": null,
				"lng": 118.092,
				"lat": 39.582,
				"guid": "3e76d382-2025-4bd9-9898-69c22e79566d"
			},
			{
				"city": "唐山市       ",
				"city_code": null,
				"station": "丰润区政府(*)",
				"station_code": null,
				"lng": 118.169,
				"lat": 39.839,
				"guid": "a40d62e7-9128-4368-8553-60fc8ea627db"
			},
			{
				"city": "唐山市       ",
				"city_code": null,
				"station": "滦县第一中学(*)",
				"station_code": null,
				"lng": 118.71,
				"lat": 39.747,
				"guid": "8499b1fb-02b2-4a70-9472-0f32e725ea19"
			},
			{
				"city": "唐山市       ",
				"city_code": null,
				"station": "滦南县县政府(*)",
				"station_code": null,
				"lng": 118.681,
				"lat": 39.51,
				"guid": "b4096c98-1b45-42b8-b93b-417af6987b8d"
			},
			{
				"city": "唐山市       ",
				"city_code": null,
				"station": "乐亭县综合职校(*)",
				"station_code": null,
				"lng": 118.919,
				"lat": 39.432,
				"guid": "2edf9773-60e5-4853-bec7-dce380c20007"
			},
			{
				"city": "唐山市       ",
				"city_code": null,
				"station": "迁西环保局(*)",
				"station_code": null,
				"lng": 118.311,
				"lat": 40.152,
				"guid": "1692d8c7-6bee-4907-a3d9-88ee04e8644c"
			},
			{
				"city": "唐山市       ",
				"city_code": null,
				"station": "玉田县政府(*)",
				"station_code": null,
				"lng": 117.745,
				"lat": 39.907,
				"guid": "39e84b3e-c520-4708-9d24-e50971fe3fd9"
			},
			{
				"city": "唐山市       ",
				"city_code": null,
				"station": "曹妃甸新立小学(*)",
				"station_code": null,
				"lng": 118.456,
				"lat": 39.29,
				"guid": "73d45946-1ebd-4817-921f-69f009de64e9"
			},
			{
				"city": "唐山市       ",
				"city_code": null,
				"station": "遵化环保局(*)",
				"station_code": null,
				"lng": 117.991,
				"lat": 40.205,
				"guid": "ea82a16f-4564-45a1-ab4e-3bbf7bae4f43"
			},
			{
				"city": "唐山市       ",
				"city_code": null,
				"station": "迁安一中(*)",
				"station_code": null,
				"lng": 118.711,
				"lat": 40.003,
				"guid": "0582ec91-80df-4417-b159-c7c12ffaf5fb"
			},
			{
				"city": "廊坊市       ",
				"city_code": null,
				"station": "河北工业大学",
				"station_code": null,
				"lng": 116.715,
				"lat": 39.552,
				"guid": "2b3dceb2-0fcd-4e5b-9b62-20be7bc5f8a2"
			},
			{
				"city": "廊坊市       ",
				"city_code": null,
				"station": "药材公司",
				"station_code": null,
				"lng": 116.684,
				"lat": 39.518,
				"guid": "cad5be49-64b2-4e1b-9a6b-995dce7c3e6c"
			},
			{
				"city": "廊坊市       ",
				"city_code": null,
				"station": "开发区",
				"station_code": null,
				"lng": 116.773,
				"lat": 39.575,
				"guid": "9e91a6f2-9a78-40cb-ba63-6bfab97114c6"
			},
			{
				"city": "廊坊市       ",
				"city_code": null,
				"station": "北华航天学院",
				"station_code": null,
				"lng": 116.737,
				"lat": 39.534,
				"guid": "48d0a160-a469-4c94-9184-43c4cbee8c75"
			},
			{
				"city": "廊坊市       ",
				"city_code": null,
				"station": "固安党校(*)",
				"station_code": null,
				"lng": 116.305,
				"lat": 39.445,
				"guid": "4a4ab4df-9c95-4d13-8e6f-afccf84f2ef1"
			},
			{
				"city": "廊坊市       ",
				"city_code": null,
				"station": "永清环保局(*)",
				"station_code": null,
				"lng": 116.505,
				"lat": 39.328,
				"guid": "81ef5835-292d-4071-84b6-bca67d39e3f5"
			},
			{
				"city": "廊坊市       ",
				"city_code": null,
				"station": "香河环保局(*)",
				"station_code": null,
				"lng": 117.009,
				"lat": 39.766,
				"guid": "b640d2a4-9020-4a5f-a52e-99dfbce8354f"
			},
			{
				"city": "廊坊市       ",
				"city_code": null,
				"station": "大城环保局(*)",
				"station_code": null,
				"lng": 116.66,
				"lat": 38.712,
				"guid": "88805ccb-e18a-415b-ba8b-c3d8ee40ba73"
			},
			{
				"city": "廊坊市       ",
				"city_code": null,
				"station": "文安县环保局(*)",
				"station_code": null,
				"lng": 116.464,
				"lat": 38.88,
				"guid": "87dcff3e-4f83-4b0d-8cb5-647a1967a6e9"
			},
			{
				"city": "廊坊市       ",
				"city_code": null,
				"station": "大厂卫生局(*)",
				"station_code": null,
				"lng": 116.998,
				"lat": 39.89,
				"guid": "14142a38-2a0f-4244-a10b-2b81bbcb6ab3"
			},
			{
				"city": "廊坊市       ",
				"city_code": null,
				"station": "霸州顺达燃气(*)",
				"station_code": null,
				"lng": 116.366,
				"lat": 39.161,
				"guid": "bacee088-b5bf-4183-8cbc-5ce829238cdd"
			},
			{
				"city": "廊坊市       ",
				"city_code": null,
				"station": "三河交通局(*)",
				"station_code": null,
				"lng": 117.085,
				"lat": 39.988,
				"guid": "5b0689ec-9aac-46f1-8ca9-537accc06bbb"
			},
			{
				"city": "保定市       ",
				"city_code": null,
				"station": "市监测站",
				"station_code": null,
				"lng": 115.521,
				"lat": 38.871,
				"guid": "6428429f-2a86-4c87-be07-8186c135abf8"
			},
			{
				"city": "保定市       ",
				"city_code": null,
				"station": "地表水厂",
				"station_code": null,
				"lng": 115.461,
				"lat": 38.842,
				"guid": "7b8e13d3-6ad7-4d74-bf7f-0061019b2747"
			},
			{
				"city": "保定市       ",
				"city_code": null,
				"station": "华电二区",
				"station_code": null,
				"lng": 115.522,
				"lat": 38.896,
				"guid": "93aa430a-58d9-4eb2-896c-b03a2760bd86"
			},
			{
				"city": "保定市       ",
				"city_code": null,
				"station": "接待中心",
				"station_code": null,
				"lng": 115.471,
				"lat": 38.911,
				"guid": "4e34bec1-6cfe-4499-ae72-09db6b4ad03c"
			},
			{
				"city": "保定市       ",
				"city_code": null,
				"station": "胶片厂",
				"station_code": null,
				"lng": 115.442,
				"lat": 38.876,
				"guid": "a7db3662-078a-45be-854c-ea60323c26a5"
			},
			{
				"city": "保定市       ",
				"city_code": null,
				"station": "游泳馆",
				"station_code": null,
				"lng": 115.493,
				"lat": 38.863,
				"guid": "645e53f9-c64a-4d47-99c1-32ad7ea7ab4d"
			},
			{
				"city": "保定市       ",
				"city_code": null,
				"station": "白沟新城行政中心楼(*)",
				"station_code": null,
				"lng": 116.029,
				"lat": 39.109,
				"guid": "6342a352-fe2d-4376-bc8d-1eb9d3093813"
			},
			{
				"city": "保定市       ",
				"city_code": null,
				"station": "满城税务局(*)",
				"station_code": null,
				"lng": 115.329,
				"lat": 38.955,
				"guid": "7e1167e9-4a01-4781-a093-f64fe37021bd"
			},
			{
				"city": "保定市       ",
				"city_code": null,
				"station": "清苑县政府(*)",
				"station_code": null,
				"lng": 115.496,
				"lat": 38.771,
				"guid": "50962d0a-38ba-4c64-a07d-2c7e9ebf962c"
			},
			{
				"city": "保定市       ",
				"city_code": null,
				"station": "涞水县环境监测站(*)",
				"station_code": null,
				"lng": 115.713,
				"lat": 39.393,
				"guid": "85aff078-234c-4b92-9051-e466014652b8"
			},
			{
				"city": "保定市       ",
				"city_code": null,
				"station": "阜平县环保局(*)",
				"station_code": null,
				"lng": 114.194,
				"lat": 38.851,
				"guid": "c79fc7c0-1cf1-48cf-9374-65ece0ffdd14"
			},
			{
				"city": "保定市       ",
				"city_code": null,
				"station": "徐水环保局(*)",
				"station_code": null,
				"lng": 115.662,
				"lat": 39.025,
				"guid": "76d703a6-579e-4963-89e1-f600e00a7c03"
			},
			{
				"city": "保定市       ",
				"city_code": null,
				"station": "定兴县政府(*)",
				"station_code": null,
				"lng": 115.814,
				"lat": 39.269,
				"guid": "ec97a0a8-1e6f-489d-859e-bbcb317d20e8"
			},
			{
				"city": "保定市       ",
				"city_code": null,
				"station": "唐县政府楼(*)",
				"station_code": null,
				"lng": 114.976,
				"lat": 38.748,
				"guid": "c8441622-62f7-4f9d-b381-045744811a9c"
			},
			{
				"city": "保定市       ",
				"city_code": null,
				"station": "高阳县环保局(*)",
				"station_code": null,
				"lng": 115.764,
				"lat": 38.692,
				"guid": "47ba00fb-021c-4409-bbef-36895572f7f4"
			},
			{
				"city": "保定市       ",
				"city_code": null,
				"station": "容城县环境保护局(*)",
				"station_code": null,
				"lng": 115.868,
				"lat": 39.048,
				"guid": "bce0afc1-e930-4adb-aa8c-2e36f5da0b75"
			},
			{
				"city": "保定市       ",
				"city_code": null,
				"station": "涞源县环保局(*)",
				"station_code": null,
				"lng": 114.698,
				"lat": 39.359,
				"guid": "e5cc5317-ca37-4787-841f-6b1f7d12bc7a"
			},
			{
				"city": "保定市       ",
				"city_code": null,
				"station": "望都县环境监测站(*)",
				"station_code": null,
				"lng": 115.16,
				"lat": 38.705,
				"guid": "b58fc42f-d8fb-4ef0-ace9-808a82cbeae6"
			},
			{
				"city": "保定市       ",
				"city_code": null,
				"station": "安新民政局(*)",
				"station_code": null,
				"lng": 115.942,
				"lat": 38.942,
				"guid": "81995396-748b-42e2-8fcc-a489506970ae"
			},
			{
				"city": "保定市       ",
				"city_code": null,
				"station": "易县环境保护局(*)",
				"station_code": null,
				"lng": 115.479,
				"lat": 39.347,
				"guid": "9e0752bf-e152-41f9-8c28-15ee81b109bb"
			},
			{
				"city": "保定市       ",
				"city_code": null,
				"station": "曲阳县环保局(*)",
				"station_code": null,
				"lng": 114.725,
				"lat": 38.62,
				"guid": "93eab17c-2b36-45b0-903f-18568c9e587a"
			},
			{
				"city": "保定市       ",
				"city_code": null,
				"station": "蠡县县政府(*)",
				"station_code": null,
				"lng": 115.578,
				"lat": 38.488,
				"guid": "242c6aef-84ed-4c07-9bb5-46ca3ac95290"
			},
			{
				"city": "保定市       ",
				"city_code": null,
				"station": "顺平县环保局(*)",
				"station_code": null,
				"lng": 115.15,
				"lat": 38.85,
				"guid": "4f73cf63-930e-459d-9fba-742d1b8b04a4"
			},
			{
				"city": "保定市       ",
				"city_code": null,
				"station": "博野县招生办(*)",
				"station_code": null,
				"lng": 115.462,
				"lat": 38.453,
				"guid": "09758593-5808-4b6f-ad28-06e28612a8b6"
			},
			{
				"city": "保定市       ",
				"city_code": null,
				"station": "雄县环境保护局(*)",
				"station_code": null,
				"lng": 116.09,
				"lat": 38.982,
				"guid": "eb59919b-c174-4776-873e-2f31aacb2730"
			},
			{
				"city": "保定市       ",
				"city_code": null,
				"station": "涿州监测站(*)",
				"station_code": null,
				"lng": 116.034,
				"lat": 39.492,
				"guid": "3cd291ff-494c-43f4-890c-d3dc80a9be71"
			},
			{
				"city": "保定市       ",
				"city_code": null,
				"station": "安国市政府(*)",
				"station_code": null,
				"lng": 115.322,
				"lat": 38.428,
				"guid": "4d182058-ed62-46df-b47a-97b516060c49"
			},
			{
				"city": "保定市       ",
				"city_code": null,
				"station": "高碑店环保局(*)",
				"station_code": null,
				"lng": 115.88,
				"lat": 39.332,
				"guid": "dbb70cf9-d0be-42c4-807a-dfbddac2f02f"
			},
			{
				"city": "定州市       ",
				"city_code": null,
				"station": "定州武装部",
				"station_code": null,
				"lng": 114.997,
				"lat": 38.522,
				"guid": "9d98ed7f-4658-447d-a102-ab3a09ba4476"
			},
			{
				"city": "沧州市       ",
				"city_code": null,
				"station": "沧州市环保局",
				"station_code": null,
				"lng": 116.871,
				"lat": 38.323,
				"guid": "3d05ed1b-5413-472d-843e-d9e2d6250f13"
			},
			{
				"city": "沧州市       ",
				"city_code": null,
				"station": "沧县城建局",
				"station_code": null,
				"lng": 116.885,
				"lat": 38.299,
				"guid": "00c30abd-8bc8-4054-97d9-69608f2bafd4"
			},
			{
				"city": "沧州市       ",
				"city_code": null,
				"station": "电视转播站",
				"station_code": null,
				"lng": 116.858,
				"lat": 38.325,
				"guid": "2c9a4070-31c5-4ae6-bde6-59e279d57804"
			},
			{
				"city": "沧州市       ",
				"city_code": null,
				"station": "青县政府(*)",
				"station_code": null,
				"lng": 116.81,
				"lat": 38.589,
				"guid": "b011abe3-1b15-41eb-ba0a-e2c14ac0c78e"
			},
			{
				"city": "沧州市       ",
				"city_code": null,
				"station": "东光县铁佛寺(*)",
				"station_code": null,
				"lng": 116.532,
				"lat": 37.872,
				"guid": "1d8a5aa6-7e7e-4fa7-abe0-31b10c6f7353"
			},
			{
				"city": "沧州市       ",
				"city_code": null,
				"station": "海兴县武装部(*)",
				"station_code": null,
				"lng": 117.493,
				"lat": 38.142,
				"guid": "2b73e721-707a-4e1c-8ff7-a1eedcf9cb96"
			},
			{
				"city": "沧州市       ",
				"city_code": null,
				"station": "盐山县盐山中学(*)",
				"station_code": null,
				"lng": 117.237,
				"lat": 38.064,
				"guid": "e4b34096-4b97-4eed-810c-b9e28abb1004"
			},
			{
				"city": "沧州市       ",
				"city_code": null,
				"station": "肃宁县政府(*)",
				"station_code": null,
				"lng": 115.823,
				"lat": 38.422,
				"guid": "1ed7fffd-285e-475a-b69a-8d58c04ed890"
			},
			{
				"city": "沧州市       ",
				"city_code": null,
				"station": "南皮县教师进修学校(*)",
				"station_code": null,
				"lng": 116.712,
				"lat": 38.036,
				"guid": "2a9ab258-f349-4fc0-8098-b2bccc95a349"
			},
			{
				"city": "沧州市       ",
				"city_code": null,
				"station": "吴桥县桑园镇政府(*)",
				"station_code": null,
				"lng": 116.395,
				"lat": 37.63,
				"guid": "5ebf496f-5193-44f0-ad06-406f691d2c7c"
			},
			{
				"city": "沧州市       ",
				"city_code": null,
				"station": "献县政府(*)",
				"station_code": null,
				"lng": 116.117,
				"lat": 38.189,
				"guid": "5f4d98bf-a6a3-4191-b267-3d29cd7299ff"
			},
			{
				"city": "沧州市       ",
				"city_code": null,
				"station": "孟村县气象局(*)",
				"station_code": null,
				"lng": 117.125,
				"lat": 38.056,
				"guid": "beb915f8-ec2e-4cf6-8749-27706b2f0763"
			},
			{
				"city": "沧州市       ",
				"city_code": null,
				"station": "泊头市政府(*)",
				"station_code": null,
				"lng": 116.585,
				"lat": 38.089,
				"guid": "c475ac58-a95d-4f77-a65a-f5e48ea11713"
			},
			{
				"city": "沧州市       ",
				"city_code": null,
				"station": "任丘华油八处(*)",
				"station_code": null,
				"lng": 116.12,
				"lat": 38.738,
				"guid": "2d96ba37-20e1-4f2c-a48d-e8cb1d0598d9"
			},
			{
				"city": "沧州市       ",
				"city_code": null,
				"station": "黄骅财政局培训中心(*)",
				"station_code": null,
				"lng": 117.337,
				"lat": 38.377,
				"guid": "5b3528a0-8b09-4b98-bf94-48e7bbc05e4b"
			},
			{
				"city": "沧州市       ",
				"city_code": null,
				"station": "河间市交通局(*)",
				"station_code": null,
				"lng": 116.113,
				"lat": 38.438,
				"guid": "a059f2e5-4f65-4b81-8c32-697d95ecd12b"
			},
			{
				"city": "衡水市       ",
				"city_code": null,
				"station": "衡水市环保局",
				"station_code": null,
				"lng": 115.69,
				"lat": 37.739,
				"guid": "e74484a4-8e99-4302-9866-187a20f65a62"
			},
			{
				"city": "衡水市       ",
				"city_code": null,
				"station": "环境监测站",
				"station_code": null,
				"lng": 115.643,
				"lat": 37.738,
				"guid": "c5a75613-7171-4ee4-bc9b-dba2272d31cd"
			},
			{
				"city": "衡水市       ",
				"city_code": null,
				"station": "电机北厂",
				"station_code": null,
				"lng": 115.695,
				"lat": 37.758,
				"guid": "70d79d3c-a6fc-43ca-9819-317c5d49ac7e"
			},
			{
				"city": "衡水市       ",
				"city_code": null,
				"station": "枣强县环保局(*)",
				"station_code": null,
				"lng": 115.709,
				"lat": 37.52,
				"guid": "72cb2def-2f46-44fc-9f3f-d66056987889"
			},
			{
				"city": "衡水市       ",
				"city_code": null,
				"station": "武邑县环保局(*)",
				"station_code": null,
				"lng": 115.893,
				"lat": 37.801,
				"guid": "45059c33-92a8-441f-a232-0772c9b66536"
			},
			{
				"city": "衡水市       ",
				"city_code": null,
				"station": "武强县环保局(*)",
				"station_code": null,
				"lng": 115.954,
				"lat": 38.035,
				"guid": "fec226ae-f2d8-426e-914f-2d7715d1a2fa"
			},
			{
				"city": "衡水市       ",
				"city_code": null,
				"station": "饶阳县环保局(*)",
				"station_code": null,
				"lng": 115.735,
				"lat": 38.23,
				"guid": "26758c56-08e6-442c-b4b3-6a8926d47332"
			},
			{
				"city": "衡水市       ",
				"city_code": null,
				"station": "安平县环保局(*)",
				"station_code": null,
				"lng": 115.532,
				"lat": 38.238,
				"guid": "1b36f980-d994-4a92-a0fb-36e879aa723d"
			},
			{
				"city": "衡水市       ",
				"city_code": null,
				"station": "故城县县政府(*)",
				"station_code": null,
				"lng": 115.961,
				"lat": 37.347,
				"guid": "94322798-8cf3-4e68-a450-8b9ad28a244e"
			},
			{
				"city": "衡水市       ",
				"city_code": null,
				"station": "景县县委(*)",
				"station_code": null,
				"lng": 116.269,
				"lat": 37.692,
				"guid": "54e51cd9-618e-47ac-973e-539c452ad6ba"
			},
			{
				"city": "衡水市       ",
				"city_code": null,
				"station": "阜城县法院(*)",
				"station_code": null,
				"lng": 116.174,
				"lat": 37.866,
				"guid": "be14b2ae-bfcc-4274-9712-4f9b61faeb44"
			},
			{
				"city": "衡水市       ",
				"city_code": null,
				"station": "冀州环保局(*)",
				"station_code": null,
				"lng": 115.581,
				"lat": 37.548,
				"guid": "3590cd57-a8c3-4258-8fac-2b5b9d2bdc28"
			},
			{
				"city": "衡水市       ",
				"city_code": null,
				"station": "深州市政府(*)",
				"station_code": null,
				"lng": 115.559,
				"lat": 38,
				"guid": "2d346c20-679c-4d67-8cab-6eaba823da5e"
			},
			{
				"city": "邢台市       ",
				"city_code": null,
				"station": "路桥公司",
				"station_code": null,
				"lng": 114.533,
				"lat": 37.096,
				"guid": "d7c58fbb-8112-43d2-b682-ffa3974fc0db"
			},
			{
				"city": "邢台市       ",
				"city_code": null,
				"station": "达活泉",
				"station_code": null,
				"lng": 114.482,
				"lat": 37.097,
				"guid": "890702c3-aac6-43f9-baed-a3c73e0ee897"
			},
			{
				"city": "邢台市       ",
				"city_code": null,
				"station": "邢师高专",
				"station_code": null,
				"lng": 114.526,
				"lat": 37.053,
				"guid": "7f1ca2c2-97f3-46af-9eab-6f3b8bd6d213"
			},
			{
				"city": "邢台市       ",
				"city_code": null,
				"station": "环保局",
				"station_code": null,
				"lng": 114.485,
				"lat": 37.062,
				"guid": "0f49c2e3-6177-4e44-b713-e666c436572b"
			},
			{
				"city": "邢台市       ",
				"city_code": null,
				"station": "临城县环保局(*)",
				"station_code": null,
				"lng": 114.514,
				"lat": 37.441,
				"guid": "9e3ecc7f-a3b6-4377-9610-e0c2506f78bf"
			},
			{
				"city": "邢台市       ",
				"city_code": null,
				"station": "内丘文化活动中心(*)",
				"station_code": null,
				"lng": 114.519,
				"lat": 37.293,
				"guid": "9c1a667a-731d-4f80-8e38-9bda9988ffdd"
			},
			{
				"city": "邢台市       ",
				"city_code": null,
				"station": "柏乡县中学(*)",
				"station_code": null,
				"lng": 114.7,
				"lat": 37.488,
				"guid": "45e003fe-ab62-429b-91c9-bd96e5855191"
			},
			{
				"city": "邢台市       ",
				"city_code": null,
				"station": "隆尧县环保局(*)",
				"station_code": null,
				"lng": 114.752,
				"lat": 37.354,
				"guid": "cf048f02-f6dd-4e27-b4ad-2cd003e90cb4"
			},
			{
				"city": "邢台市       ",
				"city_code": null,
				"station": "任县青少年文化活动中心(*)",
				"station_code": null,
				"lng": 114.667,
				"lat": 37.121,
				"guid": "492585b9-c8a0-4cf7-9200-17d84429add2"
			},
			{
				"city": "邢台市       ",
				"city_code": null,
				"station": "南和县环保局(*)",
				"station_code": null,
				"lng": 114.681,
				"lat": 37.021,
				"guid": "42725196-8f7b-44e0-be7f-78dae902d31a"
			},
			{
				"city": "邢台市       ",
				"city_code": null,
				"station": "宁晋县政府(*)",
				"station_code": null,
				"lng": 114.918,
				"lat": 37.62,
				"guid": "caaad703-7233-458a-900a-84802ca52d23"
			},
			{
				"city": "邢台市       ",
				"city_code": null,
				"station": "巨鹿行政服务中心(*)",
				"station_code": null,
				"lng": 115.03,
				"lat": 37.234,
				"guid": "5d79018b-5507-4857-b260-5cda2db31de3"
			},
			{
				"city": "邢台市       ",
				"city_code": null,
				"station": "新河县环保局(*)",
				"station_code": null,
				"lng": 115.242,
				"lat": 37.522,
				"guid": "78907a77-9e35-4efc-99cc-25afd21c8a9f"
			},
			{
				"city": "邢台市       ",
				"city_code": null,
				"station": "广宗县计划生育局(*)",
				"station_code": null,
				"lng": 115.133,
				"lat": 37.074,
				"guid": "723081fc-16a9-47f6-8f61-19efd9707ce6"
			},
			{
				"city": "邢台市       ",
				"city_code": null,
				"station": "平乡县行政服务中心(*)",
				"station_code": null,
				"lng": 115.029,
				"lat": 37.063,
				"guid": "4f91542f-6a93-4980-9be1-326aab03f007"
			},
			{
				"city": "邢台市       ",
				"city_code": null,
				"station": "威县第一中学(*)",
				"station_code": null,
				"lng": 115.264,
				"lat": 36.99,
				"guid": "a4723a3f-cd45-46fd-9598-5f1981f90ec0"
			},
			{
				"city": "邢台市       ",
				"city_code": null,
				"station": "清河县青少年活动中心(*)",
				"station_code": null,
				"lng": 115.678,
				"lat": 37.078,
				"guid": "00f8df71-cb74-46fe-96bb-b72b3c419c23"
			},
			{
				"city": "邢台市       ",
				"city_code": null,
				"station": "临西县政府(*)",
				"station_code": null,
				"lng": 115.501,
				"lat": 36.871,
				"guid": "72483ba3-ca87-4c4a-9d06-ac0346c0438f"
			},
			{
				"city": "邢台市       ",
				"city_code": null,
				"station": "南宫市地税局(*)",
				"station_code": null,
				"lng": 115.412,
				"lat": 37.364,
				"guid": "75ac8711-3aaf-4c91-97d7-b1f0aaf4ca41"
			},
			{
				"city": "邢台市       ",
				"city_code": null,
				"station": "沙河宣传文化中心(*)",
				"station_code": null,
				"lng": 114.51,
				"lat": 36.861,
				"guid": "e58a4ad9-e486-46ed-8978-52e844314fc0"
			},
			{
				"city": "邯郸市       ",
				"city_code": null,
				"station": "丛台公园",
				"station_code": null,
				"lng": 114.496,
				"lat": 36.62,
				"guid": "03283034-7830-4a09-8a89-9ec583b7c848"
			},
			{
				"city": "邯郸市       ",
				"city_code": null,
				"station": "市环保局",
				"station_code": null,
				"lng": 114.513,
				"lat": 36.618,
				"guid": "fe44e94e-bc41-4446-aabb-d0aa97ead2c8"
			},
			{
				"city": "邯郸市       ",
				"city_code": null,
				"station": "东污水",
				"station_code": null,
				"lng": 114.543,
				"lat": 36.616,
				"guid": "1423098d-299a-4b48-baa2-522bf8cf5a51"
			},
			{
				"city": "邯郸市       ",
				"city_code": null,
				"station": "矿院",
				"station_code": null,
				"lng": 114.504,
				"lat": 36.578,
				"guid": "5dcd72dd-ac12-4846-9a42-08625456b0fe"
			},
			{
				"city": "邯郸市       ",
				"city_code": null,
				"station": "峰峰矿区地税局(*)",
				"station_code": null,
				"lng": 114.24,
				"lat": 36.423,
				"guid": "35e069e5-73b1-412a-9cf8-00dd47b0a858"
			},
			{
				"city": "邯郸市       ",
				"city_code": null,
				"station": "临漳县三中(*)",
				"station_code": null,
				"lng": 114.601,
				"lat": 36.33,
				"guid": "b1b96665-f9db-4271-826b-948fa54cee25"
			},
			{
				"city": "邯郸市       ",
				"city_code": null,
				"station": "成安县网通公司(*)",
				"station_code": null,
				"lng": 114.671,
				"lat": 36.44,
				"guid": "feaea44c-5542-4aa0-b7e5-0487602bf4be"
			},
			{
				"city": "邯郸市       ",
				"city_code": null,
				"station": "大名县大名一中(*)",
				"station_code": null,
				"lng": 115.154,
				"lat": 36.291,
				"guid": "b397b856-c2ef-4529-90ad-175463251b14"
			},
			{
				"city": "邯郸市       ",
				"city_code": null,
				"station": "涉县监测站(*)",
				"station_code": null,
				"lng": 113.686,
				"lat": 36.589,
				"guid": "fc2e2393-d722-4f20-8bdd-53d60ca57aeb"
			},
			{
				"city": "邯郸市       ",
				"city_code": null,
				"station": "磁县职教中心(*)",
				"station_code": null,
				"lng": 114.384,
				"lat": 36.38,
				"guid": "195a1578-ed28-4ffb-a395-5f3d9b336037"
			},
			{
				"city": "邯郸市       ",
				"city_code": null,
				"station": "肥乡工商行政管理局(*)",
				"station_code": null,
				"lng": 114.788,
				"lat": 36.549,
				"guid": "554d9186-42bd-48ef-9a03-c37d63738bd3"
			},
			{
				"city": "邯郸市       ",
				"city_code": null,
				"station": "永年政府宾馆(*)",
				"station_code": null,
				"lng": 114.497,
				"lat": 36.783,
				"guid": "37974eb9-7db6-4359-86ef-a8ffbb5de0dc"
			},
			{
				"city": "邯郸市       ",
				"city_code": null,
				"station": "邱县政府(*)",
				"station_code": null,
				"lng": 115.181,
				"lat": 36.811,
				"guid": "76b6949f-5710-4eb4-91fd-e4f7101c2bc0"
			},
			{
				"city": "邯郸市       ",
				"city_code": null,
				"station": "鸡泽县环境保护局(*)",
				"station_code": null,
				"lng": 114.879,
				"lat": 36.918,
				"guid": "330cdfb2-7fef-44d6-a46c-3c9647eb78fd"
			},
			{
				"city": "邯郸市       ",
				"city_code": null,
				"station": "广平县一中(*)",
				"station_code": null,
				"lng": 114.952,
				"lat": 36.482,
				"guid": "6fd751ae-43ea-42de-bf19-36c5b107651a"
			},
			{
				"city": "邯郸市       ",
				"city_code": null,
				"station": "馆陶县永济路小学(*)",
				"station_code": null,
				"lng": 115.3,
				"lat": 36.541,
				"guid": "059f2dee-7b75-4160-b25f-8972ea14519f"
			},
			{
				"city": "邯郸市       ",
				"city_code": null,
				"station": "魏县第三中学(*)",
				"station_code": null,
				"lng": 114.926,
				"lat": 36.347,
				"guid": "1589aafa-ec0b-4350-a501-a54027564d13"
			},
			{
				"city": "邯郸市       ",
				"city_code": null,
				"station": "曲周县武装部(*)",
				"station_code": null,
				"lng": 114.951,
				"lat": 36.785,
				"guid": "e5ab8096-e772-4567-bec2-b2c7f6953849"
			},
			{
				"city": "邯郸市       ",
				"city_code": null,
				"station": "武安高开区(*)",
				"station_code": null,
				"lng": 114.263,
				"lat": 36.686,
				"guid": "d1379dd4-e6dc-4c22-b890-e96180a6a952"
			}
		],
		"name": "河北省"
	},
	{
		"success": true,
		"data": [
			{
				"city": "太原市",
				"city_code": "140100",
				"station": "尖草坪",
				"station_code": "1081A",
				"lng": 112.522,
				"lat": 37.8873,
				"guid": "84903385-bcf1-4908-8e79-4d90b11e16ca"
			},
			{
				"city": "太原市",
				"city_code": "140100",
				"station": "涧河",
				"station_code": "1082A",
				"lng": 112.573,
				"lat": 37.9103,
				"guid": "90fc7d6a-b350-41e2-bb70-3175c965f5b7"
			},
			{
				"city": "太原市",
				"city_code": "140100",
				"station": "上兰",
				"station_code": "1083A",
				"lng": 112.434,
				"lat": 38.0108,
				"guid": "edfb0ce1-6430-4985-833f-ac6e6a1c56e0"
			},
			{
				"city": "太原市",
				"city_code": "140100",
				"station": "晋源",
				"station_code": "1084A",
				"lng": 112.469,
				"lat": 37.7124,
				"guid": "97838dca-78c1-47d3-96a4-39d8ca31fced"
			},
			{
				"city": "太原市",
				"city_code": "140100",
				"station": "小店",
				"station_code": "1085A",
				"lng": 112.5583,
				"lat": 37.7394,
				"guid": "44ee7143-885a-4228-b6ca-f3b8cada91fb"
			},
			{
				"city": "太原市",
				"city_code": "140100",
				"station": "桃园",
				"station_code": "1086A",
				"lng": 112.5369,
				"lat": 37.8692,
				"guid": "4bdf00da-4d72-41ea-8ee5-35d57b9e4833"
			},
			{
				"city": "太原市",
				"city_code": "140100",
				"station": "坞城",
				"station_code": "1087A",
				"lng": 112.57,
				"lat": 37.8195,
				"guid": "4d327bac-d246-4c64-ba63-4546d3cd1380"
			},
			{
				"city": "太原市",
				"city_code": "140100",
				"station": "南寨",
				"station_code": "1088A",
				"lng": 112.549,
				"lat": 37.9854,
				"guid": "d4dc35a1-9565-4021-a003-adc21b5a749a"
			},
			{
				"city": "太原市",
				"city_code": "140100",
				"station": "金胜",
				"station_code": "1089A",
				"lng": 112.488,
				"lat": 37.7805,
				"guid": "c7521146-bd7f-4cd4-bfaf-0ebdab4112a1"
			},
			{
				"city": "大同市",
				"city_code": "140200",
				"station": "果树场",
				"station_code": "1721A",
				"lng": 113.3819,
				"lat": 40.1097,
				"guid": "2aa98481-6a21-4f1a-91a9-0e03186e5dbb"
			},
			{
				"city": "大同市",
				"city_code": "140200",
				"station": "云冈宾馆",
				"station_code": "1723A",
				"lng": 113.2994,
				"lat": 40.0758,
				"guid": "632767bd-c179-4e9b-a286-eb3ebc181bba"
			},
			{
				"city": "大同市",
				"city_code": "140200",
				"station": "大同大学",
				"station_code": "1724A",
				"lng": 113.3444,
				"lat": 40.0917,
				"guid": "3899ab70-8e51-4ace-a108-10644dbc2d9d"
			},
			{
				"city": "大同市",
				"city_code": "140200",
				"station": "安家小村",
				"station_code": "1725A",
				"lng": 113.2661,
				"lat": 40.1269,
				"guid": "cc4f64f6-9303-4db2-abd3-484c44c4b7b7"
			},
			{
				"city": "大同市",
				"city_code": "140200",
				"station": "教育学院",
				"station_code": "1726A",
				"lng": 113.2711,
				"lat": 40.0844,
				"guid": "7b8ec005-addd-4e7b-88b0-91824d6bad37"
			},
			{
				"city": "大同市",
				"city_code": "140200",
				"station": "供排水公司",
				"station_code": "2923A",
				"lng": 113.2803,
				"lat": 40.1114,
				"guid": "e6b4e64b-c6f1-475a-bdb9-bb1c10e153de"
			},
			{
				"city": "阳泉市",
				"city_code": "140300",
				"station": "市中心",
				"station_code": "1738A",
				"lng": 113.5753,
				"lat": 37.8564,
				"guid": "218ffe3a-5199-405d-8fc9-3bcc4a4fd75f"
			},
			{
				"city": "阳泉市",
				"city_code": "140300",
				"station": "赛鱼",
				"station_code": "1739A",
				"lng": 113.4922,
				"lat": 37.8792,
				"guid": "c669b9ae-83ea-4f17-b9f4-d073fd3f74d9"
			},
			{
				"city": "阳泉市",
				"city_code": "140300",
				"station": "南庄",
				"station_code": "1740A",
				"lng": 113.5922,
				"lat": 37.8561,
				"guid": "6298df46-12eb-47c7-a244-6c1aff517ed8"
			},
			{
				"city": "阳泉市",
				"city_code": "140300",
				"station": "白羊墅",
				"station_code": "1741A",
				"lng": 113.6292,
				"lat": 37.8531,
				"guid": "7198a882-5201-4330-b38e-6d4e7e299bb0"
			},
			{
				"city": "阳泉市",
				"city_code": "140300",
				"station": "平坦",
				"station_code": "1742A",
				"lng": 113.5689,
				"lat": 37.8694,
				"guid": "eab29f09-4ba4-42dc-b189-75fb5dcd71e1"
			},
			{
				"city": "阳泉市",
				"city_code": "140300",
				"station": "大阳泉",
				"station_code": "1743A",
				"lng": 113.5158,
				"lat": 37.85,
				"guid": "10b8588b-c06c-4ece-b92a-02fa00177ebf"
			},
			{
				"city": "长治市",
				"city_code": "140400",
				"station": "清华站",
				"station_code": "1727A",
				"lng": 113.1097,
				"lat": 36.1542,
				"guid": "356340d4-635f-4bc3-9876-0ca754972525"
			},
			{
				"city": "长治市",
				"city_code": "140400",
				"station": "监测站",
				"station_code": "1728A",
				"lng": 113.0972,
				"lat": 36.1939,
				"guid": "e838c793-a420-4bca-8427-46dad15bf304"
			},
			{
				"city": "长治市",
				"city_code": "140400",
				"station": "审计局",
				"station_code": "1730A",
				"lng": 113.0886,
				"lat": 36.2126,
				"guid": "d1f7ce09-1fe8-4d67-83a3-de2057c18238"
			},
			{
				"city": "长治市",
				"city_code": "140400",
				"station": "长治八中",
				"station_code": "1731A",
				"lng": 113.0844444,
				"lat": 36.1855,
				"guid": "9826f0ea-a65a-4301-bb01-f8e4e07478f9"
			},
			{
				"city": "长治市",
				"city_code": "140400",
				"station": "德盛苑",
				"station_code": "2845A",
				"lng": 113.1569,
				"lat": 36.1912,
				"guid": "c1360440-518b-4654-b008-a4edfe7ae2e0"
			},
			{
				"city": "晋城市",
				"city_code": "140500",
				"station": "自来水公司",
				"station_code": "2160A",
				"lng": 112.85,
				"lat": 35.5051,
				"guid": "ebc125f4-157b-4e26-9e2f-ee1e752b1604"
			},
			{
				"city": "晋城市",
				"city_code": "140500",
				"station": "白云商贸",
				"station_code": "2161A",
				"lng": 112.835,
				"lat": 35.4934,
				"guid": "16b817e3-2744-4767-a789-ebbf2a0b7895"
			},
			{
				"city": "晋城市",
				"city_code": "140500",
				"station": "市环保局",
				"station_code": "2162A",
				"lng": 112.8564,
				"lat": 35.4883,
				"guid": "4fea59d5-8ec5-49e3-a971-447cae38f39c"
			},
			{
				"city": "晋城市",
				"city_code": "140500",
				"station": "技术学院",
				"station_code": "2163A",
				"lng": 112.8664,
				"lat": 35.4894,
				"guid": "4468dd09-1911-4b3c-afd0-45fb13cbdb55"
			},
			{
				"city": "晋城市",
				"city_code": "140500",
				"station": "泽州一中",
				"station_code": "2164A",
				"lng": 112.8252,
				"lat": 35.4813,
				"guid": "af6cf421-9965-4b5a-9551-45da939bac98"
			},
			{
				"city": "晋城市",
				"city_code": "140500",
				"station": "白马寺",
				"station_code": "2165A",
				"lng": 112.8453,
				"lat": 35.546,
				"guid": "b0147708-54d2-426e-828e-73cbf33a9f05"
			},
			{
				"city": "朔州市",
				"city_code": "140600",
				"station": "平朔",
				"station_code": "2166A",
				"lng": 112.44,
				"lat": 39.3514,
				"guid": "d70b97bc-ee13-48a6-a1a3-138241eb9751"
			},
			{
				"city": "朔州市",
				"city_code": "140600",
				"station": "朔唯",
				"station_code": "2167A",
				"lng": 112.4549,
				"lat": 39.3606,
				"guid": "da947fc4-10ab-4aa0-a8a5-a30cf3d89cfa"
			},
			{
				"city": "朔州市",
				"city_code": "140600",
				"station": "区政府",
				"station_code": "2168A",
				"lng": 112.4254,
				"lat": 39.3179,
				"guid": "cbd3d505-d04a-4bf8-9aea-091b752e7ab1"
			},
			{
				"city": "朔州市",
				"city_code": "140600",
				"station": "市环保局",
				"station_code": "2169A",
				"lng": 112.4078,
				"lat": 39.3265,
				"guid": "4ec368c0-4792-4244-9670-abb9641151ed"
			},
			{
				"city": "朔州市",
				"city_code": "140600",
				"station": "市二中",
				"station_code": "2170A",
				"lng": 112.4279,
				"lat": 39.3673,
				"guid": "38c68273-ab02-4689-a6b9-38f2823e0487"
			},
			{
				"city": "晋中市",
				"city_code": "140700",
				"station": "锦纶小区",
				"station_code": "2171A",
				"lng": 112.7549,
				"lat": 37.7019,
				"guid": "2a17b30f-3a9f-4371-94d1-7ba4fe335dc1"
			},
			{
				"city": "晋中市",
				"city_code": "140700",
				"station": "南都小区",
				"station_code": "2173A",
				"lng": 112.7306,
				"lat": 37.7111,
				"guid": "8cdf2fdf-7219-4905-8871-ec62df357c60"
			},
			{
				"city": "晋中市",
				"city_code": "140700",
				"station": "榆次区政府",
				"station_code": "2174A",
				"lng": 112.7105,
				"lat": 37.7087,
				"guid": "606b5e42-29ae-4438-b8d1-61e0f688d70d"
			},
			{
				"city": "晋中市",
				"city_code": "140700",
				"station": "榆次三中",
				"station_code": "2865A",
				"lng": 112.7194444,
				"lat": 37.68277778,
				"guid": "871d40c9-e5a3-4061-a2a4-75f7c3e68ebe"
			},
			{
				"city": "运城市",
				"city_code": "140800",
				"station": "运城中学",
				"station_code": "2175A",
				"lng": 110.9956,
				"lat": 35.0147,
				"guid": "f082bc13-2f98-4c50-b5a3-a34ba6144296"
			},
			{
				"city": "运城市",
				"city_code": "140800",
				"station": "禹都开发区",
				"station_code": "2176A",
				"lng": 111.0233,
				"lat": 35.0611,
				"guid": "e8ca5db2-98b0-4e03-badc-d12da7db32ff"
			},
			{
				"city": "运城市",
				"city_code": "140800",
				"station": "地区技校",
				"station_code": "2178A",
				"lng": 110.9678,
				"lat": 35.0308,
				"guid": "a14d0ffb-bb7b-4e2a-ab5b-39790535c940"
			},
			{
				"city": "运城市",
				"city_code": "140800",
				"station": "空港新区",
				"station_code": "2179A",
				"lng": 111.0414,
				"lat": 35.1147,
				"guid": "6ca0ce80-dba5-4e7c-ba75-76c1e0aae12a"
			},
			{
				"city": "运城市",
				"city_code": "140800",
				"station": "外滩首府",
				"station_code": "2866A",
				"lng": 111.0522222,
				"lat": 35.04388889,
				"guid": "6b7fb5ea-2fcb-4eb3-9a79-a5ca01d11379"
			},
			{
				"city": "忻州市",
				"city_code": "140900",
				"station": "机引",
				"station_code": "2180A",
				"lng": 112.7356,
				"lat": 38.4186,
				"guid": "a2011288-01c1-4dcb-bd31-b6e13a094e7e"
			},
			{
				"city": "忻州市",
				"city_code": "140900",
				"station": "开发区",
				"station_code": "2181A",
				"lng": 112.7383,
				"lat": 38.4519,
				"guid": "7f3aafb6-df00-43a4-a5d8-1c54f96fb6f7"
			},
			{
				"city": "忻州市",
				"city_code": "140900",
				"station": "会展中心",
				"station_code": "2182A",
				"lng": 112.7003,
				"lat": 38.4928,
				"guid": "04a08ec3-2e65-480b-8ddd-8d33d341f75c"
			},
			{
				"city": "临汾市",
				"city_code": "141000",
				"station": "临钢医院",
				"station_code": "1733A",
				"lng": 111.5531,
				"lat": 36.0783,
				"guid": "fef3828e-6382-46a1-b2a9-a4ffe2d64c06"
			},
			{
				"city": "临汾市",
				"city_code": "141000",
				"station": "技工学校",
				"station_code": "1734A",
				"lng": 111.5028,
				"lat": 36.0714,
				"guid": "b324e2d5-1aea-417f-92a6-c2d9090dbe4a"
			},
			{
				"city": "临汾市",
				"city_code": "141000",
				"station": "工商学校",
				"station_code": "1735A",
				"lng": 111.5169,
				"lat": 36.0822,
				"guid": "0e8473ba-dde7-4ff1-a21b-34dafc9be091"
			},
			{
				"city": "临汾市",
				"city_code": "141000",
				"station": "市委",
				"station_code": "1736A",
				"lng": 111.5025,
				"lat": 36.0875,
				"guid": "f4387d48-f0d0-418d-9996-dccf9d047ff8"
			},
			{
				"city": "临汾市",
				"city_code": "141000",
				"station": "南机场",
				"station_code": "1737A",
				"lng": 111.4917,
				"lat": 36.0417,
				"guid": "a6bd9cdb-7863-4891-b57b-c0e556a1bd84"
			},
			{
				"city": "临汾市",
				"city_code": "141000",
				"station": "唐尧大酒店",
				"station_code": "3018A",
				"lng": 111.505,
				"lat": 36.10139,
				"guid": "a97da4ce-0243-4a3e-8b82-1880757acb39"
			},
			{
				"city": "吕梁市",
				"city_code": "141100",
				"station": "环保局",
				"station_code": "2183A",
				"lng": 111.1406,
				"lat": 37.5211,
				"guid": "7e6c25de-4385-4ea4-992d-d2b80737056c"
			},
			{
				"city": "吕梁市",
				"city_code": "141100",
				"station": "自来水公司",
				"station_code": "2185A",
				"lng": 111.1297,
				"lat": 37.5136,
				"guid": "3e2f469a-a576-4716-a8aa-2be402abbe0b"
			},
			{
				"city": "吕梁市",
				"city_code": "141100",
				"station": "马茂庄小学",
				"station_code": "2867A",
				"lng": 111.1283333,
				"lat": 37.51,
				"guid": "8cb89bd1-469f-4ebb-b7ff-583c3565b58e"
			}
		],
		"name": "山西省"
	},
	{
		"success": true,
		"data": [
			{
				"city": "呼和浩特市",
				"city_code": "150100",
				"station": "呼市一监",
				"station_code": "1090A",
				"lng": 111.651,
				"lat": 40.7579,
				"guid": "cf6cbfe8-2ee0-4770-992a-65a10c81787c"
			},
			{
				"city": "呼和浩特市",
				"city_code": "150100",
				"station": "小召",
				"station_code": "1091A",
				"lng": 111.658,
				"lat": 40.8033,
				"guid": "ba33d65e-092a-4ec3-891c-d45ca7b7edc2"
			},
			{
				"city": "呼和浩特市",
				"city_code": "150100",
				"station": "兴松小区",
				"station_code": "1092A",
				"lng": 111.659,
				"lat": 40.8452,
				"guid": "417a9f5a-2491-4030-a770-01ba6f4d3429"
			},
			{
				"city": "呼和浩特市",
				"city_code": "150100",
				"station": "糖厂",
				"station_code": "1093A",
				"lng": 111.608,
				"lat": 40.8144,
				"guid": "025a5536-9f1b-45d3-a240-f7333f4b8826"
			},
			{
				"city": "呼和浩特市",
				"city_code": "150100",
				"station": "如意水处理厂",
				"station_code": "1094A",
				"lng": 111.751,
				"lat": 40.8369,
				"guid": "17be495d-00bd-4c31-af9d-96c0bf246059"
			},
			{
				"city": "呼和浩特市",
				"city_code": "150100",
				"station": "二十九中",
				"station_code": "1095A",
				"lng": 111.7277,
				"lat": 40.8062,
				"guid": "c3b86f8f-a961-4b6d-9478-82fb937f1236"
			},
			{
				"city": "呼和浩特市",
				"city_code": "150100",
				"station": "工大金川校区",
				"station_code": "1096A",
				"lng": 111.551,
				"lat": 40.7866,
				"guid": "74b4d75e-a382-4d03-b110-dc34cc041fb1"
			},
			{
				"city": "呼和浩特市",
				"city_code": "150100",
				"station": "化肥厂生活区",
				"station_code": "1097A",
				"lng": 111.717,
				"lat": 40.7612,
				"guid": "70f64da6-19b8-4944-be1f-957ea29d3c8f"
			},
			{
				"city": "包头市",
				"city_code": "150200",
				"station": "市环境监测站",
				"station_code": "1585A",
				"lng": 109.8756,
				"lat": 40.6532,
				"guid": "6b0e199e-2df3-4d5e-a6db-80415ddc1dcb"
			},
			{
				"city": "包头市",
				"city_code": "150200",
				"station": "包百大楼",
				"station_code": "1586A",
				"lng": 109.8104,
				"lat": 40.6575,
				"guid": "ed1116cc-ee55-456f-be9c-b6f05edcbc70"
			},
			{
				"city": "包头市",
				"city_code": "150200",
				"station": "东河城环局",
				"station_code": "1587A",
				"lng": 110.0067,
				"lat": 40.5905,
				"guid": "cf07a859-5883-47ba-a8ca-4ea2c2db606e"
			},
			{
				"city": "包头市",
				"city_code": "150200",
				"station": "青山宾馆",
				"station_code": "1588A",
				"lng": 109.8538,
				"lat": 40.6821,
				"guid": "fd0f75fb-41f5-44f2-af4e-fa6b90ab307b"
			},
			{
				"city": "包头市",
				"city_code": "150200",
				"station": "惠龙物流",
				"station_code": "1589A",
				"lng": 109.8654,
				"lat": 40.6288,
				"guid": "411ef5f5-6df7-4c71-b57c-66bcb6d2263f"
			},
			{
				"city": "包头市",
				"city_code": "150200",
				"station": "东河鸿龙湾",
				"station_code": "1590A",
				"lng": 110.0377,
				"lat": 40.5546,
				"guid": "bde7e44f-08b3-4018-a642-81fb3602957e"
			},
			{
				"city": "乌海市",
				"city_code": "150300",
				"station": "聚英学校",
				"station_code": "2186A",
				"lng": 106.8219,
				"lat": 39.6719,
				"guid": "6dc36e83-53fa-4106-a74c-3579d7daed44"
			},
			{
				"city": "乌海市",
				"city_code": "150300",
				"station": "市林业局",
				"station_code": "2187A",
				"lng": 106.8089,
				"lat": 39.6969,
				"guid": "13c770c0-5b98-443e-bae0-f88326a58c46"
			},
			{
				"city": "乌海市",
				"city_code": "150300",
				"station": "中海勃湾学校",
				"station_code": "2188A",
				"lng": 106.7931,
				"lat": 39.6572,
				"guid": "dcebf4bf-7011-4b34-923d-76e737ac0245"
			},
			{
				"city": "赤峰市",
				"city_code": "150400",
				"station": "松山一中",
				"station_code": "1744A",
				"lng": 118.9233,
				"lat": 42.2814,
				"guid": "565d0594-9178-44aa-9f66-f79283b64cb0"
			},
			{
				"city": "赤峰市",
				"city_code": "150400",
				"station": "哈达街",
				"station_code": "1745A",
				"lng": 118.9572,
				"lat": 42.2725,
				"guid": "ba1b6c66-185b-4186-9e40-2e7323dac899"
			},
			{
				"city": "赤峰市",
				"city_code": "150400",
				"station": "天义路",
				"station_code": "1746A",
				"lng": 118.8789,
				"lat": 42.2556,
				"guid": "f5ad962d-a22b-40d1-9844-fd51766bb1ce"
			},
			{
				"city": "赤峰市",
				"city_code": "150400",
				"station": "松山路",
				"station_code": "1747A",
				"lng": 119.2719,
				"lat": 42.0317,
				"guid": "1024998e-62ab-4324-a134-6d0040d59c46"
			},
			{
				"city": "通辽市",
				"city_code": "150500",
				"station": "通辽宾馆",
				"station_code": "2189A",
				"lng": 122.2603,
				"lat": 43.6267,
				"guid": "a9153403-3613-44aa-a9cd-7575ba7b2d85"
			},
			{
				"city": "通辽市",
				"city_code": "150500",
				"station": "胶建铝业",
				"station_code": "2190A",
				"lng": 122.3039,
				"lat": 43.6156,
				"guid": "84ab0aac-a956-4fa9-97f7-59efc0bc9817"
			},
			{
				"city": "通辽市",
				"city_code": "150500",
				"station": "艺术职业学校",
				"station_code": "2191A",
				"lng": 122.2532,
				"lat": 43.6801,
				"guid": "c30b4277-dc30-4a67-b0e0-bbbea57b30cd"
			},
			{
				"city": "鄂尔多斯市",
				"city_code": "150600",
				"station": "综合楼",
				"station_code": "1591A",
				"lng": 110.0023,
				"lat": 39.8129,
				"guid": "4d78e803-2626-43b7-9957-ede3f63b68e4"
			},
			{
				"city": "鄂尔多斯市",
				"city_code": "150600",
				"station": "巴音孟克林场办事处",
				"station_code": "1592A",
				"lng": 109.9486,
				"lat": 39.8261,
				"guid": "f7805f7b-686c-4675-9b3b-ef0564a79c71"
			},
			{
				"city": "鄂尔多斯市",
				"city_code": "150600",
				"station": "康泽苑",
				"station_code": "1593A",
				"lng": 109.7736,
				"lat": 39.5986,
				"guid": "85cb54ca-765e-4a9c-ac68-f227357c14f2"
			},
			{
				"city": "鄂尔多斯市",
				"city_code": "150600",
				"station": "华泰汽车城",
				"station_code": "1594A",
				"lng": 109.8119,
				"lat": 39.5989,
				"guid": "a528c663-7505-4a39-8163-a4c639ab66ad"
			},
			{
				"city": "鄂尔多斯市",
				"city_code": "150600",
				"station": "奥林花园",
				"station_code": "1595A",
				"lng": 109.9734,
				"lat": 39.7884,
				"guid": "edadbf8e-2805-43e2-98ea-b0bdba7df21d"
			},
			{
				"city": "呼伦贝尔市",
				"city_code": "150700",
				"station": "区环保局",
				"station_code": "2192A",
				"lng": 119.7594,
				"lat": 49.2261,
				"guid": "148a7d78-27cd-443b-9c4c-3bb33b94791f"
			},
			{
				"city": "呼伦贝尔市",
				"city_code": "150700",
				"station": "市艺校",
				"station_code": "2193A",
				"lng": 119.7283,
				"lat": 49.2014,
				"guid": "0d57ac87-a1df-4688-992e-ee1af3601c65"
			},
			{
				"city": "巴彦淖尔市",
				"city_code": "150800",
				"station": "秋林养殖基地",
				"station_code": "2194A",
				"lng": 107.5936,
				"lat": 40.916,
				"guid": "fb54e2ad-9921-496b-92cb-5b9a99702ce1"
			},
			{
				"city": "巴彦淖尔市",
				"city_code": "150800",
				"station": "附中",
				"station_code": "2195A",
				"lng": 107.4211,
				"lat": 40.7608,
				"guid": "582266cc-c3a7-4cf1-b087-037a3e02334f"
			},
			{
				"city": "巴彦淖尔市",
				"city_code": "150800",
				"station": "市环保大楼",
				"station_code": "2196A",
				"lng": 107.3715,
				"lat": 40.7378,
				"guid": "c70c892c-bbfa-4a9e-9eb2-9562c3ff891f"
			},
			{
				"city": "乌兰察布市",
				"city_code": "150900",
				"station": "集宁新区",
				"station_code": "2197A",
				"lng": 113.1306,
				"lat": 40.9923,
				"guid": "d0592987-a972-4da4-a773-9b6b7cab0a82"
			},
			{
				"city": "乌兰察布市",
				"city_code": "150900",
				"station": "集宁旧区西",
				"station_code": "2198A",
				"lng": 113.0974,
				"lat": 41.038,
				"guid": "80bcf916-631c-435e-9ddd-e66617036576"
			},
			{
				"city": "兴安盟",
				"city_code": "152200",
				"station": "盟监测站",
				"station_code": "2199A",
				"lng": 122.062,
				"lat": 46.0872,
				"guid": "ad5a546e-666a-4cbb-86fe-73ec1a381494"
			},
			{
				"city": "兴安盟",
				"city_code": "152200",
				"station": "胜华新制药厂",
				"station_code": "2200A",
				"lng": 122.0506,
				"lat": 46.0703,
				"guid": "ef440e55-2567-4a64-b53b-755612ac4c90"
			},
			{
				"city": "兴安盟",
				"city_code": "152200",
				"station": "科右前旗环保局",
				"station_code": "2201A",
				"lng": 121.9462,
				"lat": 46.0756,
				"guid": "b0c5005d-f72e-4832-8420-22222328b878"
			},
			{
				"city": "锡林郭勒盟",
				"city_code": "152500",
				"station": "市环保监测站",
				"station_code": "2202A",
				"lng": 116.1042,
				"lat": 43.9317,
				"guid": "f56f3227-1f62-4e89-bc6f-5c8b394b21bb"
			},
			{
				"city": "锡林郭勒盟",
				"city_code": "152500",
				"station": "市政府",
				"station_code": "2203A",
				"lng": 116.0781,
				"lat": 43.9311,
				"guid": "911f718e-8986-4a72-8437-36f8d046a880"
			},
			{
				"city": "阿拉善盟",
				"city_code": "152900",
				"station": "体育场",
				"station_code": "2204A",
				"lng": 105.6775,
				"lat": 38.8343,
				"guid": "5852504c-5ef7-452a-a822-6462e7446e2e"
			},
			{
				"city": "阿拉善盟",
				"city_code": "152900",
				"station": "盟环保楼",
				"station_code": "2205A",
				"lng": 105.6975,
				"lat": 38.843,
				"guid": "27cb0e88-082c-43d6-83a7-c5bf9d7fd973"
			},
			{
				"city": "阿拉善盟",
				"city_code": "152900",
				"station": "环保局新楼",
				"station_code": "2206A",
				"lng": 105.724,
				"lat": 38.8516,
				"guid": "75faf3d4-a940-4621-bdd9-31db93c65d57"
			}
		],
		"name": "内蒙古自治区"
	},
	{
		"success": true,
		"data": [
			{
				"city": "沈阳市",
				"city_code": "210100",
				"station": "森林路",
				"station_code": "1098A",
				"lng": 123.6836,
				"lat": 41.9339,
				"guid": "8c273517-4e00-4f32-a828-dd8dcb70d734"
			},
			{
				"city": "沈阳市",
				"city_code": "210100",
				"station": "浑南东路",
				"station_code": "1099A",
				"lng": 123.535,
				"lat": 41.7561,
				"guid": "778ecf61-c030-430a-9904-7a1f5419eea9"
			},
			{
				"city": "沈阳市",
				"city_code": "210100",
				"station": "新秀街",
				"station_code": "1100A",
				"lng": 123.439,
				"lat": 41.7089,
				"guid": "005996fb-ddf7-47ce-ade4-b836ad3c8393"
			},
			{
				"city": "沈阳市",
				"city_code": "210100",
				"station": "东陵路",
				"station_code": "1102A",
				"lng": 123.542,
				"lat": 41.8336,
				"guid": "85ebf279-1bb9-493f-9bf1-276268529546"
			},
			{
				"city": "沈阳市",
				"city_code": "210100",
				"station": "陵东街",
				"station_code": "1103A",
				"lng": 123.428,
				"lat": 41.8472,
				"guid": "0f810507-25e4-43b1-815a-fffa1ca0bf1d"
			},
			{
				"city": "沈阳市",
				"city_code": "210100",
				"station": "文化路",
				"station_code": "1104A",
				"lng": 123.41,
				"lat": 41.765,
				"guid": "e48f20dd-8dfe-4d03-bed3-b9fa43964f63"
			},
			{
				"city": "沈阳市",
				"city_code": "210100",
				"station": "小河沿",
				"station_code": "1105A",
				"lng": 123.478,
				"lat": 41.7775,
				"guid": "27370170-1502-40cd-8ba3-f55c67c045a9"
			},
			{
				"city": "沈阳市",
				"city_code": "210100",
				"station": "太原街",
				"station_code": "1106A",
				"lng": 123.3997,
				"lat": 41.7972,
				"guid": "48900832-b55c-4d93-b051-f59cd2325565"
			},
			{
				"city": "沈阳市",
				"city_code": "210100",
				"station": "京沈街",
				"station_code": "1108A",
				"lng": 123.3783,
				"lat": 41.9228,
				"guid": "146e26df-8a98-4389-a8ab-414c0b731778"
			},
			{
				"city": "沈阳市",
				"city_code": "210100",
				"station": "沈辽西路",
				"station_code": "2897A",
				"lng": 123.2444,
				"lat": 41.7347,
				"guid": "45d47d6f-3f80-44c4-ac20-2ea63cf57b9f"
			},
			{
				"city": "沈阳市",
				"city_code": "210100",
				"station": "裕农路",
				"station_code": "2900A",
				"lng": 123.5953,
				"lat": 41.9086,
				"guid": "dfbcd56b-7e06-4b25-b70f-f88005d220fc"
			},
			{
				"city": "大连市",
				"city_code": "210200",
				"station": "甘井子",
				"station_code": "1109A",
				"lng": 121.61194444,
				"lat": 38.973888889,
				"guid": "98a223d4-5df2-41da-b85b-0098fc5cfe6f"
			},
			{
				"city": "大连市",
				"city_code": "210200",
				"station": "周水子",
				"station_code": "1110A",
				"lng": 121.565,
				"lat": 38.951111111,
				"guid": "917d6a47-1a05-4541-a414-fdf606e92ed0"
			},
			{
				"city": "大连市",
				"city_code": "210200",
				"station": "星海三站",
				"station_code": "1111A",
				"lng": 121.56388889,
				"lat": 38.885,
				"guid": "90824109-4c7d-4867-bc12-f9e53aa5e233"
			},
			{
				"city": "大连市",
				"city_code": "210200",
				"station": "青泥洼桥",
				"station_code": "1112A",
				"lng": 121.63305556,
				"lat": 38.911944444,
				"guid": "2c8df51c-46c8-4494-a9c5-21aeb5ee34a5"
			},
			{
				"city": "大连市",
				"city_code": "210200",
				"station": "傅家庄",
				"station_code": "1113A",
				"lng": 121.625,
				"lat": 38.863888889,
				"guid": "a5bd60c0-7b6a-42d6-a7f3-51c171666585"
			},
			{
				"city": "大连市",
				"city_code": "210200",
				"station": "七贤岭",
				"station_code": "1114A",
				"lng": 121.51805556,
				"lat": 38.856111111,
				"guid": "d3a8fca7-2db0-4e54-be91-e7ae0b02c13b"
			},
			{
				"city": "大连市",
				"city_code": "210200",
				"station": "旅顺",
				"station_code": "1115A",
				"lng": 121.25888889,
				"lat": 38.808055556,
				"guid": "64f0c10f-9b88-4c98-afe2-45a7dbca773a"
			},
			{
				"city": "大连市",
				"city_code": "210200",
				"station": "金州",
				"station_code": "1116A",
				"lng": 121.7481,
				"lat": 39.1311,
				"guid": "693024ea-ea11-465f-a7c1-c912b88da62a"
			},
			{
				"city": "大连市",
				"city_code": "210200",
				"station": "开发区",
				"station_code": "1117A",
				"lng": 121.7769,
				"lat": 39.0511,
				"guid": "580fd93f-3aaa-4073-b47a-0e59d1de59d5"
			},
			{
				"city": "大连市",
				"city_code": "210200",
				"station": "双D港",
				"station_code": "1118A",
				"lng": 121.9769,
				"lat": 39.0631,
				"guid": "d2e369d1-d2e9-4d65-b667-abcdcabdfbcb"
			},
			{
				"city": "瓦房店市",
				"city_code": "210281",
				"station": "抱龙山庄",
				"station_code": "2018A",
				"lng": 121.989,
				"lat": 39.625,
				"guid": "94a3cb02-45da-438e-9f0c-081212a86573"
			},
			{
				"city": "瓦房店市",
				"city_code": "210281",
				"station": "东山公园",
				"station_code": "2019A",
				"lng": 122.011,
				"lat": 39.617,
				"guid": "0ab40aa9-e53c-4da3-afc1-582b260d00f6"
			},
			{
				"city": "鞍山市",
				"city_code": "210300",
				"station": "深沟寺",
				"station_code": "1748A",
				"lng": 123.044,
				"lat": 41.1196,
				"guid": "0eadcf7e-f5f1-48bd-962e-cf9cbad7dbd7"
			},
			{
				"city": "鞍山市",
				"city_code": "210300",
				"station": "太阳城",
				"station_code": "1749A",
				"lng": 123.011,
				"lat": 41.0931,
				"guid": "d817acbe-b372-4bbc-b939-dca9e494221b"
			},
			{
				"city": "鞍山市",
				"city_code": "210300",
				"station": "太平",
				"station_code": "1750A",
				"lng": 123.0485,
				"lat": 41.1442,
				"guid": "d1d621fb-5ba8-4755-acaa-59f7c795eeaa"
			},
			{
				"city": "鞍山市",
				"city_code": "210300",
				"station": "铁西三道街",
				"station_code": "1751A",
				"lng": 122.9642,
				"lat": 41.0971,
				"guid": "53e98a68-b2cd-4eb9-ba64-3b91e7da62cb"
			},
			{
				"city": "鞍山市",
				"city_code": "210300",
				"station": "铁西工业园区",
				"station_code": "1752A",
				"lng": 122.9481,
				"lat": 41.0833,
				"guid": "fef39988-cb35-4216-bb56-9b94a91ed487"
			},
			{
				"city": "鞍山市",
				"city_code": "210300",
				"station": "明达新区",
				"station_code": "1753A",
				"lng": 123.0156,
				"lat": 41.0831,
				"guid": "3c67d21b-f1b9-4e28-81fc-b8382a749393"
			},
			{
				"city": "鞍山市",
				"city_code": "210300",
				"station": "千山",
				"station_code": "1754A",
				"lng": 123.1289,
				"lat": 41.0228,
				"guid": "d61f7dd0-214c-427f-a377-972ed9396c9d"
			},
			{
				"city": "抚顺市",
				"city_code": "210400",
				"station": "望花区",
				"station_code": "1755A",
				"lng": 123.81,
				"lat": 41.8469,
				"guid": "7348e2c9-7637-4b22-b060-20878a524c6b"
			},
			{
				"city": "抚顺市",
				"city_code": "210400",
				"station": "顺城区",
				"station_code": "1756A",
				"lng": 123.9169,
				"lat": 41.8828,
				"guid": "96976f5a-2e05-494f-8834-9f1fcfc352e9"
			},
			{
				"city": "抚顺市",
				"city_code": "210400",
				"station": "东洲区",
				"station_code": "1757A",
				"lng": 124.0383,
				"lat": 41.8625,
				"guid": "3dc8f9c1-fa93-45af-a7d5-31a78727e5ba"
			},
			{
				"city": "抚顺市",
				"city_code": "210400",
				"station": "新抚区",
				"station_code": "1758A",
				"lng": 123.9,
				"lat": 41.8594,
				"guid": "3e701104-cf11-474a-8ca9-9e99323bb73c"
			},
			{
				"city": "抚顺市",
				"city_code": "210400",
				"station": "大伙房水库",
				"station_code": "1759A",
				"lng": 124.0878,
				"lat": 41.8864,
				"guid": "aa81044c-d9b5-48b6-8b9c-40a656b96f9a"
			},
			{
				"city": "抚顺市",
				"city_code": "210400",
				"station": "沈抚新城",
				"station_code": "1760A",
				"lng": 123.7117,
				"lat": 41.8417,
				"guid": "f474478e-4077-4360-8e50-39d612892c26"
			},
			{
				"city": "本溪市",
				"city_code": "210500",
				"station": "大峪",
				"station_code": "1761A",
				"lng": 123.8436,
				"lat": 41.3283,
				"guid": "668c21a5-790e-497b-a00d-759c9cbf5142"
			},
			{
				"city": "本溪市",
				"city_code": "210500",
				"station": "溪湖",
				"station_code": "1762A",
				"lng": 123.7528,
				"lat": 41.3369,
				"guid": "a5659ac3-ef90-40d5-a91b-ae29689124b2"
			},
			{
				"city": "本溪市",
				"city_code": "210500",
				"station": "彩屯",
				"station_code": "1763A",
				"lng": 123.7308,
				"lat": 41.3047,
				"guid": "99d4a9bd-3dce-4d2d-9ac7-c52d77f4e9b2"
			},
			{
				"city": "本溪市",
				"city_code": "210500",
				"station": "东明",
				"station_code": "1764A",
				"lng": 123.7669,
				"lat": 41.2864,
				"guid": "00138fb2-303d-4f42-a86f-c57d83781188"
			},
			{
				"city": "本溪市",
				"city_code": "210500",
				"station": "新立屯",
				"station_code": "1765A",
				"lng": 123.7989,
				"lat": 41.2692,
				"guid": "c389698e-daf4-4903-8d7e-5ebd7ef94c8e"
			},
			{
				"city": "本溪市",
				"city_code": "210500",
				"station": "威宁",
				"station_code": "1766A",
				"lng": 123.8142,
				"lat": 41.3472,
				"guid": "8f8904ed-cae2-4a04-a898-b8fce56f0c90"
			},
			{
				"city": "丹东市",
				"city_code": "210600",
				"station": "江湾东路",
				"station_code": "1600A",
				"lng": 124.3303,
				"lat": 40.0625,
				"guid": "eb289329-e112-49be-ac1d-25264736f65a"
			},
			{
				"city": "丹东市",
				"city_code": "210600",
				"station": "临江后街",
				"station_code": "1601A",
				"lng": 124.4256,
				"lat": 40.1503,
				"guid": "1b5c5c34-fea6-4c1b-8802-22ad922f1ac6"
			},
			{
				"city": "丹东市",
				"city_code": "210600",
				"station": "元宝山",
				"station_code": "1602A",
				"lng": 124.3933,
				"lat": 40.1461,
				"guid": "701a7f79-e6d6-4bb2-a82f-ffcba9687deb"
			},
			{
				"city": "丹东市",
				"city_code": "210600",
				"station": "民主桥",
				"station_code": "1603A",
				"lng": 124.3678,
				"lat": 40.1194,
				"guid": "79712468-37e4-4ab3-bd3c-d0d96845c9df"
			},
			{
				"city": "锦州市",
				"city_code": "210700",
				"station": "南山",
				"station_code": "1767A",
				"lng": 121.0986,
				"lat": 41.0781,
				"guid": "d6fbc70b-b439-4059-b534-6cde8c3f264c"
			},
			{
				"city": "锦州市",
				"city_code": "210700",
				"station": "开发区",
				"station_code": "1768A",
				"lng": 121.045,
				"lat": 40.8333,
				"guid": "574dee55-9d5f-49aa-b4f2-464e328f6cdf"
			},
			{
				"city": "锦州市",
				"city_code": "210700",
				"station": "百股街道",
				"station_code": "1769A",
				"lng": 121.2008,
				"lat": 41.1219,
				"guid": "7a930230-2ab7-4879-9858-e530f2190902"
			},
			{
				"city": "锦州市",
				"city_code": "210700",
				"station": "天安街道",
				"station_code": "1770A",
				"lng": 121.1178,
				"lat": 41.1222,
				"guid": "4d2cb31c-3915-44cd-9d97-a55332dbf93b"
			},
			{
				"city": "锦州市",
				"city_code": "210700",
				"station": "北湖公园",
				"station_code": "1771A",
				"lng": 121.1303,
				"lat": 41.1386,
				"guid": "be4486f2-e40e-496f-950c-ab2708cf3ce7"
			},
			{
				"city": "营口市",
				"city_code": "210800",
				"station": "学府南路",
				"station_code": "1596A",
				"lng": 122.2414,
				"lat": 40.6592,
				"guid": "4e3d79e0-007a-428d-a25e-85d356027eb1"
			},
			{
				"city": "营口市",
				"city_code": "210800",
				"station": "大庆路",
				"station_code": "1597A",
				"lng": 122.2703,
				"lat": 40.7094,
				"guid": "4a75a210-4c38-465d-abd3-d44ca6efaaf7"
			},
			{
				"city": "营口市",
				"city_code": "210800",
				"station": "镜湖西路",
				"station_code": "1598A",
				"lng": 122.215,
				"lat": 40.6511,
				"guid": "7b6e62b8-5c2e-43e1-9c32-4f78332e986d"
			},
			{
				"city": "营口市",
				"city_code": "210800",
				"station": "西炮台",
				"station_code": "1599A",
				"lng": 122.1658,
				"lat": 40.6789,
				"guid": "ddc7f0b5-1d8b-4a6e-98d7-a628f125ea7c"
			},
			{
				"city": "阜新市",
				"city_code": "210900",
				"station": "工业园区",
				"station_code": "2207A",
				"lng": 121.6178,
				"lat": 41.9967,
				"guid": "d1f416ba-0bd0-40a4-9df3-4b6e1e1bb69a"
			},
			{
				"city": "阜新市",
				"city_code": "210900",
				"station": "长青街",
				"station_code": "2208A",
				"lng": 121.6561,
				"lat": 42.0186,
				"guid": "d940bf4c-6aab-4eb1-ae94-f499fcedd2fa"
			},
			{
				"city": "阜新市",
				"city_code": "210900",
				"station": "农业园区",
				"station_code": "2209A",
				"lng": 121.6972,
				"lat": 42.0503,
				"guid": "5ad9576b-2829-4972-83de-a761567edb71"
			},
			{
				"city": "阜新市",
				"city_code": "210900",
				"station": "东苑",
				"station_code": "2210A",
				"lng": 121.6722,
				"lat": 42.0228,
				"guid": "684d2360-53e1-4286-af0b-342d85bff756"
			},
			{
				"city": "阜新市",
				"city_code": "210900",
				"station": "玉龙新城",
				"station_code": "2211A",
				"lng": 121.6592,
				"lat": 42.0486,
				"guid": "283382c0-d432-4069-9fa8-0dced24ee535"
			},
			{
				"city": "辽阳市",
				"city_code": "211000",
				"station": "宏伟区",
				"station_code": "2212A",
				"lng": 123.2,
				"lat": 41.1953,
				"guid": "a9073bf9-e537-422b-b9a2-f51684377659"
			},
			{
				"city": "辽阳市",
				"city_code": "211000",
				"station": "新华园",
				"station_code": "2213A",
				"lng": 123.15,
				"lat": 41.2553,
				"guid": "510741ea-adea-43d8-b274-01334a105587"
			},
			{
				"city": "辽阳市",
				"city_code": "211000",
				"station": "滨河路",
				"station_code": "2214A",
				"lng": 123.1761,
				"lat": 41.2736,
				"guid": "a22d5c60-c3a9-405e-9564-ef39a1e57d52"
			},
			{
				"city": "辽阳市",
				"city_code": "211000",
				"station": "铁西工业园",
				"station_code": "2215A",
				"lng": 123.1417,
				"lat": 41.2894,
				"guid": "6906749b-747b-40d6-a774-bdd24c2b7d0a"
			},
			{
				"city": "盘锦市",
				"city_code": "211100",
				"station": "开发区",
				"station_code": "1604A",
				"lng": 122.0247,
				"lat": 41.1556,
				"guid": "b9a0b274-1d63-42a7-b842-dc76085f40f0"
			},
			{
				"city": "盘锦市",
				"city_code": "211100",
				"station": "兴隆台",
				"station_code": "1605A",
				"lng": 122.0539,
				"lat": 41.0903,
				"guid": "8e4c64b5-fe34-4bb4-99b7-f851463195df"
			},
			{
				"city": "盘锦市",
				"city_code": "211100",
				"station": "新生街道",
				"station_code": "1606A",
				"lng": 121.835,
				"lat": 41.1042,
				"guid": "28f87047-ea10-4b07-8551-49658446201d"
			},
			{
				"city": "铁岭市",
				"city_code": "211200",
				"station": "汇工街西",
				"station_code": "2216A",
				"lng": 123.8139,
				"lat": 42.3022,
				"guid": "a66dc660-c8f0-42da-9788-58ab875f2a20"
			},
			{
				"city": "铁岭市",
				"city_code": "211200",
				"station": "水上乐园",
				"station_code": "2217A",
				"lng": 123.8831,
				"lat": 42.2953,
				"guid": "e345f2b5-bd2f-4df4-be1d-b25b8f2562c5"
			},
			{
				"city": "铁岭市",
				"city_code": "211200",
				"station": "银州路东段",
				"station_code": "2218A",
				"lng": 123.8489,
				"lat": 42.2864,
				"guid": "8585b40f-793d-4e39-8c0c-cf0cf1524a0e"
			},
			{
				"city": "铁岭市",
				"city_code": "211200",
				"station": "金沙江路北",
				"station_code": "2219A",
				"lng": 123.7153,
				"lat": 42.2217,
				"guid": "7e87d0fa-08c1-4685-9d35-e58490e7bef6"
			},
			{
				"city": "朝阳市",
				"city_code": "211300",
				"station": "西梁",
				"station_code": "2220A",
				"lng": 120.4439,
				"lat": 41.5931,
				"guid": "a0740abe-11cc-4750-95a5-3c60a7317fc6"
			},
			{
				"city": "朝阳市",
				"city_code": "211300",
				"station": "河畔小区",
				"station_code": "2221A",
				"lng": 120.4486,
				"lat": 41.5672,
				"guid": "f33e7806-aa59-4037-96eb-d5fd4c4c2cfd"
			},
			{
				"city": "朝阳市",
				"city_code": "211300",
				"station": "八里堡",
				"station_code": "2222A",
				"lng": 120.4247,
				"lat": 41.5647,
				"guid": "79b48a18-5961-46d1-bf3f-c3f0a3e20eac"
			},
			{
				"city": "朝阳市",
				"city_code": "211300",
				"station": "农业园区",
				"station_code": "2223A",
				"lng": 120.3939,
				"lat": 41.615,
				"guid": "c55717be-780a-4c03-bb62-2cefc37bef54"
			},
			{
				"city": "葫芦岛市",
				"city_code": "211400",
				"station": "龙港区",
				"station_code": "1607A",
				"lng": 120.9092,
				"lat": 40.7136,
				"guid": "fccfcf60-b7df-4d81-a24f-5fe3c3b662aa"
			},
			{
				"city": "葫芦岛市",
				"city_code": "211400",
				"station": "化工街",
				"station_code": "1608A",
				"lng": 120.8392,
				"lat": 40.7514,
				"guid": "2f16d2f6-4e0b-4210-8dab-8d6b55772e33"
			},
			{
				"city": "葫芦岛市",
				"city_code": "211400",
				"station": "新区",
				"station_code": "1609A",
				"lng": 120.8478,
				"lat": 40.715,
				"guid": "43d3b5c8-2f7d-4faf-bf38-ba467892c858"
			},
			{
				"city": "葫芦岛市",
				"city_code": "211400",
				"station": "东城区",
				"station_code": "1610A",
				"lng": 120.8631,
				"lat": 40.7736,
				"guid": "3bd35c85-834c-4394-8611-e69d85a0a334"
			}
		],
		"name": "辽宁省"
	},
	{
		"success": true,
		"data": [
			{
				"city": "长春市",
				"city_code": "220100",
				"station": "食品厂",
				"station_code": "1119A",
				"lng": 125.323,
				"lat": 43.9167,
				"guid": "b423edb3-1fee-4232-9a1a-63edf8c6921a"
			},
			{
				"city": "长春市",
				"city_code": "220100",
				"station": "客车厂",
				"station_code": "1120A",
				"lng": 125.287,
				"lat": 43.91,
				"guid": "acf0c8f1-f1c1-432c-bbd2-d0e2958efed9"
			},
			{
				"city": "长春市",
				"city_code": "220100",
				"station": "邮电学院",
				"station_code": "1121A",
				"lng": 125.2786,
				"lat": 43.84,
				"guid": "4ff7c8fd-8f61-4d5d-a7bf-d0da679a98c7"
			},
			{
				"city": "长春市",
				"city_code": "220100",
				"station": "劳动公园",
				"station_code": "1122A",
				"lng": 125.3649,
				"lat": 43.8748,
				"guid": "510d6deb-8235-4c82-a9a3-4c9738237ce3"
			},
			{
				"city": "长春市",
				"city_code": "220100",
				"station": "园林处",
				"station_code": "1123A",
				"lng": 125.325,
				"lat": 43.8694,
				"guid": "8cd5739e-adad-4f6f-9e7c-339658e3b474"
			},
			{
				"city": "长春市",
				"city_code": "220100",
				"station": "净月潭",
				"station_code": "1124A",
				"lng": 125.454,
				"lat": 43.7878,
				"guid": "e299b74b-b236-40c9-a9ef-6eccb183334b"
			},
			{
				"city": "长春市",
				"city_code": "220100",
				"station": "甩湾子",
				"station_code": "1125A",
				"lng": 125.633,
				"lat": 43.55,
				"guid": "62d67f99-c96c-410e-ad0d-564bf2892778"
			},
			{
				"city": "长春市",
				"city_code": "220100",
				"station": "经开区环卫处",
				"station_code": "1126A",
				"lng": 125.417,
				"lat": 43.8667,
				"guid": "79e49dd9-5929-4b4c-b5e1-0f1d8247239f"
			},
			{
				"city": "长春市",
				"city_code": "220100",
				"station": "高新区管委会",
				"station_code": "1127A",
				"lng": 125.25,
				"lat": 43.8167,
				"guid": "09593351-58f8-4b1d-bd96-7a5ccacf0d82"
			},
			{
				"city": "长春市",
				"city_code": "220100",
				"station": "岱山公园",
				"station_code": "1128A",
				"lng": 125.217,
				"lat": 43.85,
				"guid": "d919a02e-e4d9-4784-83bb-b0ac33d734d0"
			},
			{
				"city": "吉林市",
				"city_code": "220200",
				"station": "哈达湾",
				"station_code": "1772A",
				"lng": 126.555,
				"lat": 43.8875,
				"guid": "df2d90b3-9918-424e-8282-e091c93a29b6"
			},
			{
				"city": "吉林市",
				"city_code": "220200",
				"station": "东局子",
				"station_code": "1773A",
				"lng": 126.5844,
				"lat": 43.8358,
				"guid": "670e7b4a-2468-4c8f-b7f8-78fd140f427b"
			},
			{
				"city": "吉林市",
				"city_code": "220200",
				"station": "电力学院",
				"station_code": "1774A",
				"lng": 126.4978,
				"lat": 43.8228,
				"guid": "573a7ce5-74d9-4985-b0d2-c139d72366da"
			},
			{
				"city": "吉林市",
				"city_code": "220200",
				"station": "江北",
				"station_code": "1775A",
				"lng": 126.5786,
				"lat": 43.8947,
				"guid": "13b3f2ed-0d45-4a34-b8ac-f5fe4a9f99ff"
			},
			{
				"city": "吉林市",
				"city_code": "220200",
				"station": "江南公园",
				"station_code": "1776A",
				"lng": 126.55,
				"lat": 43.8256,
				"guid": "19b191dd-6a08-4aef-8215-7752e6225554"
			},
			{
				"city": "吉林市",
				"city_code": "220200",
				"station": "丰满",
				"station_code": "1778A",
				"lng": 126.6772,
				"lat": 43.7256,
				"guid": "5c75afa6-bc75-4d11-9105-435ebcfcff7b"
			},
			{
				"city": "吉林市",
				"city_code": "220200",
				"station": "九站",
				"station_code": "2868A",
				"lng": 126.4738889,
				"lat": 43.95305556,
				"guid": "20a702dc-5c66-4d72-a857-a8e0c2032a5a"
			},
			{
				"city": "四平市",
				"city_code": "220300",
				"station": "监测站",
				"station_code": "2224A",
				"lng": 124.3419,
				"lat": 43.1747,
				"guid": "3a4d3cae-86bb-457d-b1e9-6f28177101ca"
			},
			{
				"city": "四平市",
				"city_code": "220300",
				"station": "一商场",
				"station_code": "2225A",
				"lng": 124.3711,
				"lat": 43.1594,
				"guid": "692d20a2-60d9-480c-ab48-e831482d957a"
			},
			{
				"city": "四平市",
				"city_code": "220300",
				"station": "境园",
				"station_code": "2226A",
				"lng": 124.3897,
				"lat": 43.1847,
				"guid": "bba916d8-c335-4865-a881-54edb453631d"
			},
			{
				"city": "辽源市",
				"city_code": "220400",
				"station": "环保局",
				"station_code": "2227A",
				"lng": 125.1358,
				"lat": 42.8947,
				"guid": "5e72d5af-cf54-4861-9dd2-668e285cf59e"
			},
			{
				"city": "辽源市",
				"city_code": "220400",
				"station": "污水处理厂",
				"station_code": "2228A",
				"lng": 125.1567,
				"lat": 42.8953,
				"guid": "b0996a20-7154-4d46-b5e4-3ec477274634"
			},
			{
				"city": "通化市",
				"city_code": "220500",
				"station": "光明",
				"station_code": "2229A",
				"lng": 125.9361,
				"lat": 41.7156,
				"guid": "4ad737c2-982a-4598-8006-183ff85cd00f"
			},
			{
				"city": "通化市",
				"city_code": "220500",
				"station": "铁路",
				"station_code": "2230A",
				"lng": 125.9486,
				"lat": 41.7381,
				"guid": "c3ebed06-9ae2-48d1-8865-70a33a6393af"
			},
			{
				"city": "白山市",
				"city_code": "220600",
				"station": "喜丰",
				"station_code": "2231A",
				"lng": 126.4047,
				"lat": 41.9206,
				"guid": "e7dbcaa1-5483-459d-a290-a522ba8b4299"
			},
			{
				"city": "白山市",
				"city_code": "220600",
				"station": "环保局",
				"station_code": "2232A",
				"lng": 126.4078,
				"lat": 41.9419,
				"guid": "3987bfcf-51d2-406b-a739-6a5adc0fff6f"
			},
			{
				"city": "松原市",
				"city_code": "220700",
				"station": "江南",
				"station_code": "2233A",
				"lng": 124.8292,
				"lat": 45.0878,
				"guid": "a7aa4cf3-f997-438f-9f48-0c9a62d611ab"
			},
			{
				"city": "松原市",
				"city_code": "220700",
				"station": "江北",
				"station_code": "2234A",
				"lng": 124.8528,
				"lat": 45.1642,
				"guid": "0c2973a9-c08f-4371-99df-7b4267858c2c"
			},
			{
				"city": "白城市",
				"city_code": "220800",
				"station": "洮北区环保局",
				"station_code": "2235A",
				"lng": 122.8444,
				"lat": 45.6289,
				"guid": "df0d6c79-c4bf-4066-86b8-b7cfb6b6f2de"
			},
			{
				"city": "白城市",
				"city_code": "220800",
				"station": "市环保局",
				"station_code": "2236A",
				"lng": 122.8211,
				"lat": 45.6175,
				"guid": "1b4ece93-d069-4146-83cc-ed0b8fc1851b"
			},
			{
				"city": "延边州",
				"city_code": "222400",
				"station": "妇幼医院",
				"station_code": "2237A",
				"lng": 129.4892,
				"lat": 42.8939,
				"guid": "311aed94-3062-45b1-b3a2-25cce2d57c7d"
			},
			{
				"city": "延边州",
				"city_code": "222400",
				"station": "延边医院",
				"station_code": "2238A",
				"lng": 129.5042,
				"lat": 42.9061,
				"guid": "27e4842d-a61f-42cb-9e7a-407bbb6f8a2d"
			},
			{
				"city": "延边州",
				"city_code": "222400",
				"station": "朝阳川镇医院",
				"station_code": "2239A",
				"lng": 129.3675,
				"lat": 42.8775,
				"guid": "a6de4b33-8908-4936-809d-f7eab361416b"
			}
		],
		"name": "吉林省"
	},
	{
		"success": true,
		"data": [
			{
				"city": "哈尔滨市",
				"city_code": "230100",
				"station": "岭北",
				"station_code": "1129A",
				"lng": 126.542,
				"lat": 45.755,
				"guid": "465bcf35-748a-4d1d-854c-e9c2e00fcab9"
			},
			{
				"city": "哈尔滨市",
				"city_code": "230100",
				"station": "松北商大",
				"station_code": "1130A",
				"lng": 126.561,
				"lat": 45.8167,
				"guid": "ce00e926-f909-41c1-bc3e-d82cf120da52"
			},
			{
				"city": "哈尔滨市",
				"city_code": "230100",
				"station": "阿城会宁",
				"station_code": "1131A",
				"lng": 126.979,
				"lat": 45.5422,
				"guid": "369a8426-d753-477b-a7d5-017e357d5405"
			},
			{
				"city": "哈尔滨市",
				"city_code": "230100",
				"station": "南岗学府路",
				"station_code": "1132A",
				"lng": 126.599,
				"lat": 45.7222,
				"guid": "d87b07c9-190e-4fea-bf26-48f3bedee9f0"
			},
			{
				"city": "哈尔滨市",
				"city_code": "230100",
				"station": "太平宏伟公园",
				"station_code": "1133A",
				"lng": 126.689,
				"lat": 45.7733,
				"guid": "004200ca-bd9f-4d13-b924-873b2ad94de7"
			},
			{
				"city": "哈尔滨市",
				"city_code": "230100",
				"station": "道外承德广场",
				"station_code": "1134A",
				"lng": 126.635,
				"lat": 45.7667,
				"guid": "3b9693fc-3d91-4163-a6e5-8341e25e8f1b"
			},
			{
				"city": "哈尔滨市",
				"city_code": "230100",
				"station": "香坊红旗大街",
				"station_code": "1135A",
				"lng": 126.685,
				"lat": 45.7319,
				"guid": "1e290aaa-9d40-4d0d-a365-1baacb327ca1"
			},
			{
				"city": "哈尔滨市",
				"city_code": "230100",
				"station": "动力和平路",
				"station_code": "1136A",
				"lng": 126.646,
				"lat": 45.7258,
				"guid": "9efb1f30-1f81-4b5a-9a4b-b6b1c1761004"
			},
			{
				"city": "哈尔滨市",
				"city_code": "230100",
				"station": "道里建国路",
				"station_code": "1137A",
				"lng": 126.593,
				"lat": 45.7478,
				"guid": "780968a2-b051-415d-a7fc-ae7bd0ba9912"
			},
			{
				"city": "哈尔滨市",
				"city_code": "230100",
				"station": "平房东轻厂",
				"station_code": "1138A",
				"lng": 126.615,
				"lat": 45.61,
				"guid": "9f6a3b6f-4428-4b05-92c5-0b026e6f833e"
			},
			{
				"city": "哈尔滨市",
				"city_code": "230100",
				"station": "呼兰师专",
				"station_code": "1139A",
				"lng": 126.6106,
				"lat": 45.9819,
				"guid": "51a1aa0e-b308-4dbc-9da1-46c8ad2706a0"
			},
			{
				"city": "哈尔滨市",
				"city_code": "230100",
				"station": "省农科院",
				"station_code": "1140A",
				"lng": 126.6206,
				"lat": 45.6842,
				"guid": "b7fc6891-e505-41c1-844c-277994f818c1"
			},
			{
				"city": "齐齐哈尔市",
				"city_code": "230200",
				"station": "安居小区",
				"station_code": "1779A",
				"lng": 123.9305,
				"lat": 47.3636,
				"guid": "8b97ef03-792e-49ca-b243-f7348d5e66e8"
			},
			{
				"city": "齐齐哈尔市",
				"city_code": "230200",
				"station": "中心广场",
				"station_code": "1780A",
				"lng": 123.9305,
				"lat": 47.3386,
				"guid": "cd3e3cbb-ae64-436b-8679-eb63246d010f"
			},
			{
				"city": "齐齐哈尔市",
				"city_code": "230200",
				"station": "农牧车辆厂",
				"station_code": "1781A",
				"lng": 123.9483,
				"lat": 47.3227,
				"guid": "ce42fc6d-bd01-4003-b77b-e887c465027f"
			},
			{
				"city": "齐齐哈尔市",
				"city_code": "230200",
				"station": "富区环保局",
				"station_code": "1782A",
				"lng": 123.6261,
				"lat": 47.203,
				"guid": "2832a5de-a47b-4b0a-aaca-961d8f7d6e1b"
			},
			{
				"city": "齐齐哈尔市",
				"city_code": "230200",
				"station": "市环境监测站",
				"station_code": "1783A",
				"lng": 123.945,
				"lat": 47.2988,
				"guid": "a774a16e-1253-4047-a0aa-08839fdf6b94"
			},
			{
				"city": "鸡西市",
				"city_code": "230300",
				"station": "环保局",
				"station_code": "2240A",
				"lng": 130.962,
				"lat": 45.2924,
				"guid": "09ed4c1c-4c93-4df2-92c4-fbb303f91d79"
			},
			{
				"city": "鸡西市",
				"city_code": "230300",
				"station": "自来水公司",
				"station_code": "2241A",
				"lng": 130.9817,
				"lat": 45.305,
				"guid": "e7557455-e203-410c-bf8f-86bd496d87f1"
			},
			{
				"city": "鸡西市",
				"city_code": "230300",
				"station": "白酒厂",
				"station_code": "2242A",
				"lng": 131.0103,
				"lat": 45.2948,
				"guid": "a8757ecd-c216-4036-9823-f53a5bc502b7"
			},